<UBX(NAV-POSLLH, iTOW=08:28:03, lon=23.4965705, lat=62.8060432, height=106590, hMSL=86239, hAcc=3516, vAcc=5693)>
<UBX(NAV-POSLLH, iTOW=08:28:04, lon=23.4965665, lat=62.8060411, height=107265, hMSL=86914, hAcc=2961, vAcc=5005)>
<UBX(NAV-POSLLH, iTOW=08:28:05, lon=23.4965639, lat=62.8060418, height=108138, hMSL=87787, hAcc=2559, vAcc=4434)>
<UBX(NAV-POSLLH, iTOW=08:28:06, lon=23.4965604, lat=62.8060403, height=108382, hMSL=88031, hAcc=2247, vAcc=3983)>
<UBX(NAV-POSLLH, iTOW=08:28:07, lon=23.4965577, lat=62.8060397, height=108703, hMSL=88352, hAcc=1995, vAcc=3608)>
<UBX(NAV-POSLLH, iTOW=08:28:08, lon=23.4965556, lat=62.8060386, height=108767, hMSL=88416, hAcc=1808, vAcc=3342)>
<UBX(NAV-POSLLH, iTOW=08:28:09, lon=23.4965536, lat=62.8060397, height=108790, hMSL=88439, hAcc=1668, vAcc=3114)>
<UBX(NAV-POSLLH, iTOW=08:28:10, lon=23.4965523, lat=62.8060454, height=109026, hMSL=88675, hAcc=1541, vAcc=2896)>
<UBX(NAV-POSLLH, iTOW=08:28:11, lon=23.4965531, lat=62.8060577, height=109468, hMSL=89117, hAcc=1410, vAcc=2652)>
<UBX(NAV-POSLLH, iTOW=08:28:12, lon=23.496552, lat=62.8060765, height=109815, hMSL=89465, hAcc=1304, vAcc=2450)>
<UBX(NAV-POSLLH, iTOW=08:28:13, lon=23.4965427, lat=62.8060987, height=109986, hMSL=89635, hAcc=1218, vAcc=2289)>
<UBX(NAV-POSLLH, iTOW=08:28:14, lon=23.4965214, lat=62.8061189, height=110117, hMSL=89766, hAcc=1150, vAcc=2153)>
<UBX(NAV-POSLLH, iTOW=08:28:15, lon=23.4964871, lat=62.8061336, height=110180, hMSL=89829, hAcc=1093, vAcc=2038)>
<UBX(NAV-POSLLH, iTOW=08:28:16, lon=23.4964419, lat=62.8061399, height=110147, hMSL=89796, hAcc=1034, vAcc=1930)>
<UBX(NAV-POSLLH, iTOW=08:28:17, lon=23.4963909, lat=62.8061353, height=110024, hMSL=89673, hAcc=994, vAcc=1859)>
<UBX(NAV-POSLLH, iTOW=08:28:18, lon=23.4963424, lat=62.806118, height=110028, hMSL=89677, hAcc=958, vAcc=1799)>
<UBX(NAV-POSLLH, iTOW=08:28:19, lon=23.4963074, lat=62.8060883, height=110018, hMSL=89667, hAcc=919, vAcc=1722)>
<UBX(NAV-POSLLH, iTOW=08:28:20, lon=23.4962917, lat=62.8060499, height=110031, hMSL=89680, hAcc=886, vAcc=1657)>
<UBX(NAV-POSLLH, iTOW=08:28:21, lon=23.4962962, lat=62.8060071, height=110031, hMSL=89680, hAcc=858, vAcc=1602)>
<UBX(NAV-POSLLH, iTOW=08:28:22, lon=23.4963185, lat=62.8059636, height=110157, hMSL=89806, hAcc=834, vAcc=1550)>
<UBX(NAV-POSLLH, iTOW=08:28:23, lon=23.4963506, lat=62.8059225, height=110215, hMSL=89864, hAcc=815, vAcc=1507)>
<UBX(NAV-POSLLH, iTOW=08:28:24, lon=23.496387, lat=62.8058862, height=110290, hMSL=89939, hAcc=808, vAcc=1481)>
<UBX(NAV-POSLLH, iTOW=08:28:25, lon=23.4964265, lat=62.805855, height=110405, hMSL=90054, hAcc=796, vAcc=1446)>
<UBX(NAV-POSLLH, iTOW=08:28:26, lon=23.4964711, lat=62.8058279, height=110592, hMSL=90241, hAcc=782, vAcc=1408)>
<UBX(NAV-POSLLH, iTOW=08:28:27, lon=23.4965274, lat=62.8058069, height=110638, hMSL=90287, hAcc=767, vAcc=1372)>
<UBX(NAV-POSLLH, iTOW=08:28:28, lon=23.4965976, lat=62.8057991, height=110658, hMSL=90307, hAcc=749, vAcc=1340)>
<UBX(NAV-POSLLH, iTOW=08:28:29, lon=23.4966714, lat=62.8058085, height=110730, hMSL=90379, hAcc=734, vAcc=1318)>
<UBX(NAV-POSLLH, iTOW=08:28:30, lon=23.4967293, lat=62.805835, height=110718, hMSL=90367, hAcc=725, vAcc=1309)>
<UBX(NAV-POSLLH, iTOW=08:28:31, lon=23.4967593, lat=62.8058741, height=110630, hMSL=90279, hAcc=722, vAcc=1301)>
<UBX(NAV-POSLLH, iTOW=08:28:32, lon=23.4967675, lat=62.8059206, height=110580, hMSL=90230, hAcc=718, vAcc=1289)>
<UBX(NAV-POSLLH, iTOW=08:28:33, lon=23.4967687, lat=62.8059757, height=110546, hMSL=90195, hAcc=712, vAcc=1272)>
<UBX(NAV-POSLLH, iTOW=08:28:34, lon=23.4967696, lat=62.8060408, height=110590, hMSL=90240, hAcc=702, vAcc=1251)>
<UBX(NAV-POSLLH, iTOW=08:28:35, lon=23.4967704, lat=62.806115, height=110641, hMSL=90291, hAcc=697, vAcc=1243)>
<UBX(NAV-POSLLH, iTOW=08:28:36, lon=23.4967731, lat=62.8061941, height=110703, hMSL=90352, hAcc=693, vAcc=1237)>
<UBX(NAV-POSLLH, iTOW=08:28:37, lon=23.4967775, lat=62.8062724, height=110642, hMSL=90291, hAcc=692, vAcc=1241)>
<UBX(NAV-POSLLH, iTOW=08:28:38, lon=23.4967835, lat=62.8063508, height=110268, hMSL=89917, hAcc=689, vAcc=1228)>
<UBX(NAV-POSLLH, iTOW=08:28:39, lon=23.4967888, lat=62.8064331, height=110198, hMSL=89847, hAcc=686, vAcc=1219)>
<UBX(NAV-POSLLH, iTOW=08:28:40, lon=23.49679, lat=62.8065208, height=110090, hMSL=89739, hAcc=686, vAcc=1209)>
<UBX(NAV-POSLLH, iTOW=08:28:41, lon=23.4967865, lat=62.8066144, height=109729, hMSL=89378, hAcc=685, vAcc=1193)>
<UBX(NAV-POSLLH, iTOW=08:28:42, lon=23.4967762, lat=62.8067104, height=109456, hMSL=89105, hAcc=679, vAcc=1173)>
<UBX(NAV-POSLLH, iTOW=08:28:43, lon=23.4967609, lat=62.8068061, height=109222, hMSL=88870, hAcc=672, vAcc=1150)>
<UBX(NAV-POSLLH, iTOW=08:28:44, lon=23.4967456, lat=62.8069009, height=109050, hMSL=88698, hAcc=667, vAcc=1134)>
<UBX(NAV-POSLLH, iTOW=08:28:45, lon=23.4967317, lat=62.8069956, height=108794, hMSL=88443, hAcc=673, vAcc=1143)>
<UBX(NAV-POSLLH, iTOW=08:28:46, lon=23.4967167, lat=62.8070906, height=108752, hMSL=88400, hAcc=680, vAcc=1154)>
<UBX(NAV-POSLLH, iTOW=08:28:47, lon=23.4967003, lat=62.8071855, height=108621, hMSL=88270, hAcc=685, vAcc=1165)>
<UBX(NAV-POSLLH, iTOW=08:28:48, lon=23.4966805, lat=62.807282, height=108295, hMSL=87943, hAcc=1496, vAcc=1365)>
<UBX(NAV-POSLLH, iTOW=08:28:49, lon=23.4966587, lat=62.8073744, height=107936, hMSL=87584, hAcc=1306, vAcc=1284)>
<UBX(NAV-POSLLH, iTOW=08:28:50, lon=23.4966457, lat=62.8074654, height=108062, hMSL=87710, hAcc=956, vAcc=1182)>
<UBX(NAV-POSLLH, iTOW=08:28:51, lon=23.4966335, lat=62.8075557, height=108226, hMSL=87874, hAcc=876, vAcc=1149)>
<UBX(NAV-POSLLH, iTOW=08:28:52, lon=23.4966213, lat=62.807645, height=108283, hMSL=87930, hAcc=643, vAcc=1005)>
<UBX(NAV-POSLLH, iTOW=08:28:53, lon=23.4966069, lat=62.8077343, height=108153, hMSL=87800, hAcc=551, vAcc=837)>
<UBX(NAV-POSLLH, iTOW=08:28:54, lon=23.4965911, lat=62.8078267, height=107963, hMSL=87611, hAcc=459, vAcc=756)>
<UBX(NAV-POSLLH, iTOW=08:28:55, lon=23.4965745, lat=62.8079214, height=107992, hMSL=87640, hAcc=372, vAcc=663)>
<UBX(NAV-POSLLH, iTOW=08:28:56, lon=23.4965532, lat=62.8080171, height=107973, hMSL=87621, hAcc=357, vAcc=621)>
<UBX(NAV-POSLLH, iTOW=08:28:57, lon=23.4965243, lat=62.8081129, height=108073, hMSL=87721, hAcc=337, vAcc=613)>
<UBX(NAV-POSLLH, iTOW=08:28:58, lon=23.4964813, lat=62.8082064, height=108335, hMSL=87982, hAcc=342, vAcc=629)>
<UBX(NAV-POSLLH, iTOW=08:28:59, lon=23.4964149, lat=62.8082962, height=108371, hMSL=88019, hAcc=354, vAcc=616)>
<UBX(NAV-POSLLH, iTOW=08:29:00, lon=23.4963231, lat=62.8083831, height=108235, hMSL=87882, hAcc=341, vAcc=589)>
<UBX(NAV-POSLLH, iTOW=08:29:01, lon=23.4962063, lat=62.8084646, height=108176, hMSL=87823, hAcc=331, vAcc=507)>
<UBX(NAV-POSLLH, iTOW=08:29:02, lon=23.4960747, lat=62.8085409, height=107912, hMSL=87559, hAcc=314, vAcc=542)>
<UBX(NAV-POSLLH, iTOW=08:29:03, lon=23.4959445, lat=62.8086197, height=107895, hMSL=87541, hAcc=291, vAcc=537)>
<UBX(NAV-POSLLH, iTOW=08:29:04, lon=23.4958267, lat=62.8087032, height=107957, hMSL=87604, hAcc=271, vAcc=496)>
<UBX(NAV-POSLLH, iTOW=08:29:05, lon=23.4957227, lat=62.8087905, height=108067, hMSL=87714, hAcc=258, vAcc=507)>
<UBX(NAV-POSLLH, iTOW=08:29:06, lon=23.4956302, lat=62.8088789, height=108033, hMSL=87679, hAcc=269, vAcc=495)>
<UBX(NAV-POSLLH, iTOW=08:29:07, lon=23.4955499, lat=62.8089671, height=108083, hMSL=87729, hAcc=274, vAcc=483)>
<UBX(NAV-POSLLH, iTOW=08:29:08, lon=23.4954849, lat=62.8090543, height=107953, hMSL=87599, hAcc=257, vAcc=428)>
<UBX(NAV-POSLLH, iTOW=08:29:09, lon=23.4954417, lat=62.8091405, height=108066, hMSL=87712, hAcc=274, vAcc=441)>
<UBX(NAV-POSLLH, iTOW=08:29:10, lon=23.4954299, lat=62.8092276, height=108211, hMSL=87857, hAcc=293, vAcc=460)>
<UBX(NAV-POSLLH, iTOW=08:29:11, lon=23.4954544, lat=62.8093147, height=107802, hMSL=87448, hAcc=299, vAcc=445)>
<UBX(NAV-POSLLH, iTOW=08:29:12, lon=23.4955136, lat=62.8093986, height=107673, hMSL=87319, hAcc=319, vAcc=484)>
<UBX(NAV-POSLLH, iTOW=08:29:13, lon=23.4956009, lat=62.8094781, height=107802, hMSL=87447, hAcc=311, vAcc=527)>
<UBX(NAV-POSLLH, iTOW=08:29:14, lon=23.4957113, lat=62.8095523, height=107771, hMSL=87417, hAcc=331, vAcc=563)>
<UBX(NAV-POSLLH, iTOW=08:29:15, lon=23.4958473, lat=62.80962, height=107836, hMSL=87481, hAcc=327, vAcc=497)>
<UBX(NAV-POSLLH, iTOW=08:29:16, lon=23.4960068, lat=62.8096817, height=107719, hMSL=87364, hAcc=290, vAcc=416)>
<UBX(NAV-POSLLH, iTOW=08:29:17, lon=23.4961803, lat=62.809741, height=107601, hMSL=87247, hAcc=253, vAcc=347)>
<UBX(NAV-POSLLH, iTOW=08:29:18, lon=23.4963621, lat=62.8098, height=107507, hMSL=87153, hAcc=238, vAcc=342)>
<UBX(NAV-POSLLH, iTOW=08:29:19, lon=23.4965475, lat=62.8098583, height=107562, hMSL=87208, hAcc=246, vAcc=381)>
<UBX(NAV-POSLLH, iTOW=08:29:20, lon=23.4967301, lat=62.8099173, height=107537, hMSL=87183, hAcc=243, vAcc=400)>
<UBX(NAV-POSLLH, iTOW=08:29:21, lon=23.4969096, lat=62.8099763, height=107327, hMSL=86973, hAcc=219, vAcc=412)>
<UBX(NAV-POSLLH, iTOW=08:29:22, lon=23.4970884, lat=62.8100352, height=107117, hMSL=86763, hAcc=219, vAcc=431)>
<UBX(NAV-POSLLH, iTOW=08:29:23, lon=23.497266, lat=62.8100945, height=106994, hMSL=86640, hAcc=228, vAcc=434)>
<UBX(NAV-POSLLH, iTOW=08:29:24, lon=23.4974414, lat=62.8101539, height=106651, hMSL=86297, hAcc=203, vAcc=406)>
<UBX(NAV-POSLLH, iTOW=08:29:25, lon=23.497615, lat=62.8102139, height=106379, hMSL=86026, hAcc=178, vAcc=381)>
<UBX(NAV-POSLLH, iTOW=08:29:26, lon=23.4977802, lat=62.8102773, height=106173, hMSL=85819, hAcc=168, vAcc=318)>
<UBX(NAV-POSLLH, iTOW=08:29:27, lon=23.4979317, lat=62.8103461, height=106150, hMSL=85796, hAcc=169, vAcc=291)>
<UBX(NAV-POSLLH, iTOW=08:29:28, lon=23.4980592, lat=62.8104223, height=106025, hMSL=85671, hAcc=194, vAcc=324)>
<UBX(NAV-POSLLH, iTOW=08:29:29, lon=23.4981631, lat=62.8105057, height=106027, hMSL=85673, hAcc=215, vAcc=352)>
<UBX(NAV-POSLLH, iTOW=08:29:30, lon=23.4982599, lat=62.8105915, height=106018, hMSL=85664, hAcc=197, vAcc=307)>
<UBX(NAV-POSLLH, iTOW=08:29:31, lon=23.4983661, lat=62.8106734, height=105948, hMSL=85594, hAcc=194, vAcc=289)>
<UBX(NAV-POSLLH, iTOW=08:29:32, lon=23.4984851, lat=62.8107502, height=105760, hMSL=85406, hAcc=199, vAcc=285)>
<UBX(NAV-POSLLH, iTOW=08:29:33, lon=23.498619, lat=62.8108221, height=105349, hMSL=84995, hAcc=205, vAcc=292)>
<UBX(NAV-POSLLH, iTOW=08:29:34, lon=23.498765, lat=62.8108899, height=105069, hMSL=84715, hAcc=209, vAcc=312)>
<UBX(NAV-POSLLH, iTOW=08:29:35, lon=23.4989149, lat=62.8109546, height=104650, hMSL=84296, hAcc=224, vAcc=345)>
<UBX(NAV-POSLLH, iTOW=08:29:36, lon=23.4990704, lat=62.8110175, height=104546, hMSL=84192, hAcc=270, vAcc=402)>
<UBX(NAV-POSLLH, iTOW=08:29:37, lon=23.499229, lat=62.8110807, height=104438, hMSL=84084, hAcc=266, vAcc=356)>
<UBX(NAV-POSLLH, iTOW=08:29:38, lon=23.4993909, lat=62.8111448, height=104289, hMSL=83935, hAcc=254, vAcc=366)>
<UBX(NAV-POSLLH, iTOW=08:29:39, lon=23.4995555, lat=62.8112087, height=104283, hMSL=83929, hAcc=266, vAcc=370)>
<UBX(NAV-POSLLH, iTOW=08:29:40, lon=23.4997225, lat=62.8112711, height=104333, hMSL=83979, hAcc=252, vAcc=351)>
<UBX(NAV-POSLLH, iTOW=08:29:41, lon=23.4998883, lat=62.8113313, height=104365, hMSL=84011, hAcc=263, vAcc=399)>
<UBX(NAV-POSLLH, iTOW=08:29:42, lon=23.5000599, lat=62.8113845, height=104324, hMSL=83970, hAcc=282, vAcc=400)>
<UBX(NAV-POSLLH, iTOW=08:29:43, lon=23.5002429, lat=62.8114285, height=104343, hMSL=83989, hAcc=295, vAcc=462)>
<UBX(NAV-POSLLH, iTOW=08:29:44, lon=23.5004295, lat=62.8114648, height=104451, hMSL=84097, hAcc=301, vAcc=441)>
<UBX(NAV-POSLLH, iTOW=08:29:45, lon=23.5006158, lat=62.8114966, height=104622, hMSL=84268, hAcc=276, vAcc=412)>
<UBX(NAV-POSLLH, iTOW=08:29:46, lon=23.5008015, lat=62.8115267, height=104682, hMSL=84328, hAcc=281, vAcc=400)>
<UBX(NAV-POSLLH, iTOW=08:29:47, lon=23.5009854, lat=62.8115578, height=104533, hMSL=84180, hAcc=308, vAcc=441)>
<UBX(NAV-POSLLH, iTOW=08:29:48, lon=23.501176, lat=62.8115848, height=104921, hMSL=84567, hAcc=245, vAcc=448)>
<UBX(NAV-POSLLH, iTOW=08:29:49, lon=23.501364, lat=62.8116134, height=105239, hMSL=84885, hAcc=224, vAcc=449)>
<UBX(NAV-POSLLH, iTOW=08:29:50, lon=23.5015501, lat=62.8116428, height=105569, hMSL=85216, hAcc=214, vAcc=427)>
<UBX(NAV-POSLLH, iTOW=08:29:51, lon=23.5017346, lat=62.8116733, height=105740, hMSL=85387, hAcc=229, vAcc=428)>
<UBX(NAV-POSLLH, iTOW=08:29:52, lon=23.5019144, lat=62.8117062, height=105883, hMSL=85530, hAcc=232, vAcc=410)>
<UBX(NAV-POSLLH, iTOW=08:29:53, lon=23.5020875, lat=62.8117424, height=106018, hMSL=85665, hAcc=209, vAcc=405)>
<UBX(NAV-POSLLH, iTOW=08:29:54, lon=23.5022513, lat=62.8117831, height=106158, hMSL=85806, hAcc=204, vAcc=396)>
<UBX(NAV-POSLLH, iTOW=08:29:55, lon=23.5024024, lat=62.8118313, height=106276, hMSL=85923, hAcc=196, vAcc=345)>
<UBX(NAV-POSLLH, iTOW=08:29:56, lon=23.5025372, lat=62.8118876, height=106569, hMSL=86216, hAcc=176, vAcc=319)>
<UBX(NAV-POSLLH, iTOW=08:29:57, lon=23.502647, lat=62.811953, height=106953, hMSL=86600, hAcc=210, vAcc=372)>
<UBX(NAV-POSLLH, iTOW=08:29:58, lon=23.502731, lat=62.8120268, height=107241, hMSL=86888, hAcc=266, vAcc=433)>
<UBX(NAV-POSLLH, iTOW=08:29:59, lon=23.5027954, lat=62.8121062, height=107281, hMSL=86928, hAcc=254, vAcc=374)>
<UBX(NAV-POSLLH, iTOW=08:30:00, lon=23.5028508, lat=62.8121897, height=107425, hMSL=87072, hAcc=259, vAcc=393)>
<UBX(NAV-POSLLH, iTOW=08:30:01, lon=23.5029053, lat=62.812275, height=107825, hMSL=87472, hAcc=280, vAcc=446)>
<UBX(NAV-POSLLH, iTOW=08:30:02, lon=23.5029591, lat=62.8123598, height=108087, hMSL=87734, hAcc=318, vAcc=504)>
<UBX(NAV-POSLLH, iTOW=08:30:03, lon=23.5030103, lat=62.8124432, height=107993, hMSL=87640, hAcc=304, vAcc=536)>
<UBX(NAV-POSLLH, iTOW=08:30:04, lon=23.5030622, lat=62.8125226, height=107955, hMSL=87602, hAcc=299, vAcc=552)>
<UBX(NAV-POSLLH, iTOW=08:30:05, lon=23.5031113, lat=62.812595, height=108161, hMSL=87808, hAcc=283, vAcc=535)>
<UBX(NAV-POSLLH, iTOW=08:30:06, lon=23.5031522, lat=62.8126563, height=108142, hMSL=87789, hAcc=264, vAcc=494)>
<UBX(NAV-POSLLH, iTOW=08:30:07, lon=23.5031879, lat=62.8127034, height=108098, hMSL=87745, hAcc=240, vAcc=436)>
<UBX(NAV-POSLLH, iTOW=08:30:08, lon=23.5032154, lat=62.8127385, height=108113, hMSL=87760, hAcc=223, vAcc=378)>
<UBX(NAV-POSLLH, iTOW=08:30:09, lon=23.5032387, lat=62.8127663, height=107905, hMSL=87552, hAcc=195, vAcc=315)>
<UBX(NAV-POSLLH, iTOW=08:30:10, lon=23.5032661, lat=62.812793, height=107847, hMSL=87494, hAcc=167, vAcc=303)>
<UBX(NAV-POSLLH, iTOW=08:30:11, lon=23.503306, lat=62.8128197, height=107875, hMSL=87522, hAcc=163, vAcc=268)>
<UBX(NAV-POSLLH, iTOW=08:30:12, lon=23.503366, lat=62.812841, height=107903, hMSL=87550, hAcc=155, vAcc=245)>
<UBX(NAV-POSLLH, iTOW=08:30:13, lon=23.5034443, lat=62.8128488, height=107896, hMSL=87543, hAcc=164, vAcc=255)>
<UBX(NAV-POSLLH, iTOW=08:30:14, lon=23.5035284, lat=62.8128394, height=107941, hMSL=87587, hAcc=161, vAcc=253)>
<UBX(NAV-POSLLH, iTOW=08:30:15, lon=23.5035994, lat=62.8128095, height=107974, hMSL=87621, hAcc=142, vAcc=228)>
<UBX(NAV-POSLLH, iTOW=08:30:16, lon=23.5036549, lat=62.8127617, height=107976, hMSL=87623, hAcc=133, vAcc=217)>
<UBX(NAV-POSLLH, iTOW=08:30:17, lon=23.5037138, lat=62.8127032, height=108041, hMSL=87688, hAcc=133, vAcc=219)>
<UBX(NAV-POSLLH, iTOW=08:30:18, lon=23.503785, lat=62.8126355, height=108045, hMSL=87692, hAcc=139, vAcc=234)>
<UBX(NAV-POSLLH, iTOW=08:30:19, lon=23.5038667, lat=62.8125583, height=108051, hMSL=87698, hAcc=153, vAcc=258)>
<UBX(NAV-POSLLH, iTOW=08:30:20, lon=23.5039574, lat=62.8124749, height=108022, hMSL=87669, hAcc=145, vAcc=244)>
<UBX(NAV-POSLLH, iTOW=08:30:21, lon=23.5040482, lat=62.8123914, height=107993, hMSL=87641, hAcc=140, vAcc=226)>
<UBX(NAV-POSLLH, iTOW=08:30:22, lon=23.5041386, lat=62.8123072, height=107991, hMSL=87639, hAcc=133, vAcc=222)>
<UBX(NAV-POSLLH, iTOW=08:30:23, lon=23.5042297, lat=62.8122189, height=107951, hMSL=87599, hAcc=138, vAcc=216)>
<UBX(NAV-POSLLH, iTOW=08:30:24, lon=23.5043214, lat=62.8121262, height=107875, hMSL=87523, hAcc=134, vAcc=211)>
<UBX(NAV-POSLLH, iTOW=08:30:25, lon=23.5044097, lat=62.8120324, height=107802, hMSL=87450, hAcc=118, vAcc=190)>
<UBX(NAV-POSLLH, iTOW=08:30:26, lon=23.5044919, lat=62.811939, height=107702, hMSL=87350, hAcc=111, vAcc=181)>
<UBX(NAV-POSLLH, iTOW=08:30:27, lon=23.5045689, lat=62.8118462, height=107626, hMSL=87275, hAcc=108, vAcc=189)>
<UBX(NAV-POSLLH, iTOW=08:30:28, lon=23.504643, lat=62.8117531, height=107580, hMSL=87228, hAcc=114, vAcc=205)>
<UBX(NAV-POSLLH, iTOW=08:30:29, lon=23.5047132, lat=62.8116592, height=107536, hMSL=87184, hAcc=116, vAcc=213)>
<UBX(NAV-POSLLH, iTOW=08:30:30, lon=23.5047789, lat=62.8115645, height=107493, hMSL=87142, hAcc=116, vAcc=221)>
<UBX(NAV-POSLLH, iTOW=08:30:31, lon=23.5048384, lat=62.8114699, height=107473, hMSL=87122, hAcc=115, vAcc=219)>
<UBX(NAV-POSLLH, iTOW=08:30:32, lon=23.5048933, lat=62.8113751, height=107430, hMSL=87079, hAcc=110, vAcc=201)>
<UBX(NAV-POSLLH, iTOW=08:30:33, lon=23.5049437, lat=62.8112798, height=107378, hMSL=87027, hAcc=104, vAcc=197)>
<UBX(NAV-POSLLH, iTOW=08:30:34, lon=23.5049885, lat=62.8111837, height=107343, hMSL=86992, hAcc=106, vAcc=197)>
<UBX(NAV-POSLLH, iTOW=08:30:35, lon=23.5050285, lat=62.8110868, height=107269, hMSL=86918, hAcc=110, vAcc=201)>
<UBX(NAV-POSLLH, iTOW=08:30:36, lon=23.505065, lat=62.810989, height=107240, hMSL=86889, hAcc=106, vAcc=203)>
<UBX(NAV-POSLLH, iTOW=08:30:37, lon=23.5050973, lat=62.8108907, height=107200, hMSL=86850, hAcc=101, vAcc=185)>
<UBX(NAV-POSLLH, iTOW=08:30:38, lon=23.505124, lat=62.8107921, height=107089, hMSL=86738, hAcc=95, vAcc=170)>
<UBX(NAV-POSLLH, iTOW=08:30:39, lon=23.5051448, lat=62.8106934, height=106991, hMSL=86641, hAcc=94, vAcc=165)>
<UBX(NAV-POSLLH, iTOW=08:30:40, lon=23.5051606, lat=62.8105957, height=106975, hMSL=86624, hAcc=51, vAcc=105)>
<UBX(NAV-POSLLH, iTOW=08:30:41, lon=23.5051716, lat=62.8104971, height=106954, hMSL=86603, hAcc=40, vAcc=95)>
<UBX(NAV-POSLLH, iTOW=08:30:42, lon=23.5051809, lat=62.8103996, height=107000, hMSL=86649, hAcc=69, vAcc=112)>
<UBX(NAV-POSLLH, iTOW=08:30:43, lon=23.50519, lat=62.8103028, height=107006, hMSL=86655, hAcc=83, vAcc=104)>
<UBX(NAV-POSLLH, iTOW=08:30:44, lon=23.5052, lat=62.8102065, height=107045, hMSL=86695, hAcc=52, vAcc=106)>
<UBX(NAV-POSLLH, iTOW=08:30:45, lon=23.50521, lat=62.8101102, height=107076, hMSL=86726, hAcc=50, vAcc=111)>
<UBX(NAV-POSLLH, iTOW=08:30:46, lon=23.5052206, lat=62.8100136, height=107123, hMSL=86773, hAcc=49, vAcc=111)>
<UBX(NAV-POSLLH, iTOW=08:30:47, lon=23.5052311, lat=62.809917, height=107189, hMSL=86839, hAcc=44, vAcc=102)>
<UBX(NAV-POSLLH, iTOW=08:30:48, lon=23.505241, lat=62.8098205, height=107242, hMSL=86892, hAcc=48, vAcc=99)>
<UBX(NAV-POSLLH, iTOW=08:30:49, lon=23.5052505, lat=62.8097234, height=107308, hMSL=86958, hAcc=51, vAcc=99)>
<UBX(NAV-POSLLH, iTOW=08:30:50, lon=23.5052603, lat=62.8096257, height=107335, hMSL=86985, hAcc=43, vAcc=93)>
<UBX(NAV-POSLLH, iTOW=08:30:51, lon=23.5052728, lat=62.8095273, height=107345, hMSL=86995, hAcc=54, vAcc=94)>
<UBX(NAV-POSLLH, iTOW=08:30:52, lon=23.5052892, lat=62.8094284, height=107394, hMSL=87044, hAcc=53, vAcc=88)>
<UBX(NAV-POSLLH, iTOW=08:30:53, lon=23.5053093, lat=62.809329, height=107435, hMSL=87086, hAcc=42, vAcc=87)>
<UBX(NAV-POSLLH, iTOW=08:30:54, lon=23.5053329, lat=62.8092291, height=107499, hMSL=87150, hAcc=40, vAcc=87)>
<UBX(NAV-POSLLH, iTOW=08:30:55, lon=23.5053585, lat=62.8091289, height=107539, hMSL=87190, hAcc=40, vAcc=86)>
<UBX(NAV-POSLLH, iTOW=08:30:56, lon=23.505385, lat=62.8090293, height=107567, hMSL=87218, hAcc=41, vAcc=92)>
<UBX(NAV-POSLLH, iTOW=08:30:57, lon=23.5054129, lat=62.8089304, height=107623, hMSL=87274, hAcc=44, vAcc=99)>
<UBX(NAV-POSLLH, iTOW=08:30:58, lon=23.5054445, lat=62.8088327, height=107667, hMSL=87318, hAcc=44, vAcc=101)>
<UBX(NAV-POSLLH, iTOW=08:30:59, lon=23.5054818, lat=62.8087366, height=107711, hMSL=87362, hAcc=45, vAcc=103)>
<UBX(NAV-POSLLH, iTOW=08:31:00, lon=23.505524, lat=62.808642, height=107755, hMSL=87407, hAcc=53, vAcc=111)>
<UBX(NAV-POSLLH, iTOW=08:31:01, lon=23.505571, lat=62.8085484, height=107791, hMSL=87443, hAcc=55, vAcc=120)>
<UBX(NAV-POSLLH, iTOW=08:31:02, lon=23.5056257, lat=62.808456, height=107832, hMSL=87484, hAcc=48, vAcc=112)>
<UBX(NAV-POSLLH, iTOW=08:31:03, lon=23.5056889, lat=62.8083648, height=107898, hMSL=87550, hAcc=48, vAcc=124)>
<UBX(NAV-POSLLH, iTOW=08:31:04, lon=23.5057608, lat=62.8082749, height=107914, hMSL=87565, hAcc=47, vAcc=127)>
<UBX(NAV-POSLLH, iTOW=08:31:05, lon=23.5058403, lat=62.8081883, height=107861, hMSL=87513, hAcc=30, vAcc=93)>
<UBX(NAV-POSLLH, iTOW=08:31:06, lon=23.5059248, lat=62.8081058, height=107916, hMSL=87568, hAcc=32, vAcc=72)>
<UBX(NAV-POSLLH, iTOW=08:31:07, lon=23.506011, lat=62.8080278, height=108002, hMSL=87654, hAcc=44, vAcc=75)>
<UBX(NAV-POSLLH, iTOW=08:31:08, lon=23.5060929, lat=62.8079576, height=108026, hMSL=87678, hAcc=40, vAcc=72)>
<UBX(NAV-POSLLH, iTOW=08:31:09, lon=23.5061653, lat=62.8078964, height=108027, hMSL=87679, hAcc=37, vAcc=70)>
<UBX(NAV-POSLLH, iTOW=08:31:10, lon=23.5062262, lat=62.8078454, height=108050, hMSL=87702, hAcc=35, vAcc=66)>
<UBX(NAV-POSLLH, iTOW=08:31:11, lon=23.5062754, lat=62.8078039, height=108048, hMSL=87700, hAcc=34, vAcc=64)>
<UBX(NAV-POSLLH, iTOW=08:31:12, lon=23.5063201, lat=62.8077668, height=108140, hMSL=87793, hAcc=36, vAcc=77)>
<UBX(NAV-POSLLH, iTOW=08:31:13, lon=23.5063628, lat=62.8077313, height=108193, hMSL=87846, hAcc=45, vAcc=94)>
<UBX(NAV-POSLLH, iTOW=08:31:14, lon=23.5064066, lat=62.8076945, height=108251, hMSL=87904, hAcc=43, vAcc=84)>
<UBX(NAV-POSLLH, iTOW=08:31:15, lon=23.5064479, lat=62.8076582, height=108298, hMSL=87950, hAcc=43, vAcc=96)>
<UBX(NAV-POSLLH, iTOW=08:31:16, lon=23.5064875, lat=62.8076215, height=108260, hMSL=87913, hAcc=44, vAcc=101)>
<UBX(NAV-POSLLH, iTOW=08:31:17, lon=23.5065274, lat=62.8075823, height=108250, hMSL=87903, hAcc=37, vAcc=87)>
<UBX(NAV-POSLLH, iTOW=08:31:18, lon=23.5065714, lat=62.8075357, height=108233, hMSL=87886, hAcc=34, vAcc=80)>
<UBX(NAV-POSLLH, iTOW=08:31:19, lon=23.5066195, lat=62.8074782, height=108245, hMSL=87898, hAcc=31, vAcc=67)>
<UBX(NAV-POSLLH, iTOW=08:31:20, lon=23.5066716, lat=62.8074089, height=108310, hMSL=87963, hAcc=36, vAcc=58)>
<UBX(NAV-POSLLH, iTOW=08:31:21, lon=23.5067218, lat=62.8073317, height=108333, hMSL=87986, hAcc=51, vAcc=75)>
<UBX(NAV-POSLLH, iTOW=08:31:22, lon=23.5067635, lat=62.8072542, height=108337, hMSL=87990, hAcc=55, vAcc=77)>
<UBX(NAV-POSLLH, iTOW=08:31:23, lon=23.5067997, lat=62.8071747, height=108354, hMSL=88008, hAcc=52, vAcc=68)>
<UBX(NAV-POSLLH, iTOW=08:31:24, lon=23.5068294, lat=62.8070888, height=108387, hMSL=88040, hAcc=50, vAcc=63)>
<UBX(NAV-POSLLH, iTOW=08:31:25, lon=23.5068497, lat=62.8069953, height=108378, hMSL=88031, hAcc=48, vAcc=60)>
<UBX(NAV-POSLLH, iTOW=08:31:26, lon=23.5068582, lat=62.8068983, height=108378, hMSL=88032, hAcc=40, vAcc=52)>
<UBX(NAV-POSLLH, iTOW=08:31:27, lon=23.5068567, lat=62.8068025, height=108376, hMSL=88030, hAcc=37, vAcc=51)>
<UBX(NAV-POSLLH, iTOW=08:31:28, lon=23.5068469, lat=62.8067065, height=108413, hMSL=88067, hAcc=35, vAcc=51)>
<UBX(NAV-POSLLH, iTOW=08:31:29, lon=23.5068279, lat=62.8066089, height=108356, hMSL=88009, hAcc=36, vAcc=70)>
<UBX(NAV-POSLLH, iTOW=08:31:30, lon=23.5068044, lat=62.8065099, height=108281, hMSL=87934, hAcc=38, vAcc=100)>
<UBX(NAV-POSLLH, iTOW=08:31:31, lon=23.5067821, lat=62.8064101, height=108180, hMSL=87834, hAcc=44, vAcc=132)>
<UBX(NAV-POSLLH, iTOW=08:31:32, lon=23.5067599, lat=62.806311, height=108144, hMSL=87797, hAcc=59, vAcc=160)>
<UBX(NAV-POSLLH, iTOW=08:31:33, lon=23.5067369, lat=62.8062133, height=108051, hMSL=87705, hAcc=73, vAcc=125)>
<UBX(NAV-POSLLH, iTOW=08:31:34, lon=23.5067174, lat=62.8061164, height=108086, hMSL=87740, hAcc=79, vAcc=119)>
<UBX(NAV-POSLLH, iTOW=08:31:35, lon=23.5067025, lat=62.8060201, height=108122, hMSL=87776, hAcc=74, vAcc=119)>
<UBX(NAV-POSLLH, iTOW=08:31:36, lon=23.5066925, lat=62.8059246, height=108073, hMSL=87727, hAcc=71, vAcc=117)>
<UBX(NAV-POSLLH, iTOW=08:31:37, lon=23.5066916, lat=62.8058289, height=107990, hMSL=87644, hAcc=64, vAcc=109)>
<UBX(NAV-POSLLH, iTOW=08:31:38, lon=23.5067007, lat=62.8057333, height=107942, hMSL=87596, hAcc=56, vAcc=86)>
<UBX(NAV-POSLLH, iTOW=08:31:39, lon=23.5067197, lat=62.8056382, height=107903, hMSL=87558, hAcc=53, vAcc=79)>
<UBX(NAV-POSLLH, iTOW=08:31:40, lon=23.5067479, lat=62.8055435, height=107886, hMSL=87541, hAcc=52, vAcc=76)>
<UBX(NAV-POSLLH, iTOW=08:31:41, lon=23.506784, lat=62.8054492, height=107846, hMSL=87500, hAcc=52, vAcc=76)>
<UBX(NAV-POSLLH, iTOW=08:31:42, lon=23.5068258, lat=62.8053555, height=107804, hMSL=87459, hAcc=54, vAcc=91)>
<UBX(NAV-POSLLH, iTOW=08:31:43, lon=23.5068703, lat=62.8052619, height=107764, hMSL=87419, hAcc=55, vAcc=95)>
<UBX(NAV-POSLLH, iTOW=08:31:44, lon=23.5069159, lat=62.8051681, height=107787, hMSL=87442, hAcc=66, vAcc=109)>
<UBX(NAV-POSLLH, iTOW=08:31:45, lon=23.5069607, lat=62.8050745, height=107773, hMSL=87429, hAcc=52, vAcc=85)>
<UBX(NAV-POSLLH, iTOW=08:31:46, lon=23.5070054, lat=62.8049812, height=107775, hMSL=87431, hAcc=50, vAcc=82)>
<UBX(NAV-POSLLH, iTOW=08:31:47, lon=23.5070505, lat=62.8048886, height=107712, hMSL=87367, hAcc=43, vAcc=73)>
<UBX(NAV-POSLLH, iTOW=08:31:48, lon=23.5070962, lat=62.8047968, height=107674, hMSL=87329, hAcc=39, vAcc=65)>
<UBX(NAV-POSLLH, iTOW=08:31:49, lon=23.5071415, lat=62.8047056, height=107593, hMSL=87249, hAcc=37, vAcc=62)>
<UBX(NAV-POSLLH, iTOW=08:31:50, lon=23.5071862, lat=62.804616, height=107564, hMSL=87219, hAcc=46, vAcc=76)>
<UBX(NAV-POSLLH, iTOW=08:31:51, lon=23.50723, lat=62.8045308, height=107533, hMSL=87189, hAcc=46, vAcc=79)>
<UBX(NAV-POSLLH, iTOW=08:31:52, lon=23.5072698, lat=62.8044553, height=107493, hMSL=87149, hAcc=43, vAcc=77)>
<UBX(NAV-POSLLH, iTOW=08:31:53, lon=23.5073011, lat=62.8043938, height=107457, hMSL=87112, hAcc=42, vAcc=76)>
<UBX(NAV-POSLLH, iTOW=08:31:54, lon=23.5073183, lat=62.8043464, height=107430, hMSL=87086, hAcc=42, vAcc=75)>
<UBX(NAV-POSLLH, iTOW=08:31:55, lon=23.5073112, lat=62.8043048, height=107397, hMSL=87053, hAcc=40, vAcc=71)>
<UBX(NAV-POSLLH, iTOW=08:31:56, lon=23.5072724, lat=62.8042677, height=107310, hMSL=86966, hAcc=40, vAcc=67)>
<UBX(NAV-POSLLH, iTOW=08:31:57, lon=23.5071965, lat=62.8042378, height=107178, hMSL=86833, hAcc=46, vAcc=68)>
<UBX(NAV-POSLLH, iTOW=08:31:58, lon=23.5070823, lat=62.8042156, height=106840, hMSL=86496, hAcc=56, vAcc=87)>
<UBX(NAV-POSLLH, iTOW=08:31:59, lon=23.5069378, lat=62.8041938, height=106423, hMSL=86079, hAcc=56, vAcc=91)>
<UBX(NAV-POSLLH, iTOW=08:32:00, lon=23.5067716, lat=62.8041673, height=105864, hMSL=85520, hAcc=63, vAcc=118)>
<UBX(NAV-POSLLH, iTOW=08:32:01, lon=23.5065967, lat=62.8041375, height=105229, hMSL=84885, hAcc=63, vAcc=126)>
<UBX(NAV-POSLLH, iTOW=08:32:02, lon=23.5064136, lat=62.8041047, height=104580, hMSL=84236, hAcc=58, vAcc=116)>
<UBX(NAV-POSLLH, iTOW=08:32:03, lon=23.5062148, lat=62.8040676, height=103896, hMSL=83551, hAcc=54, vAcc=99)>
<UBX(NAV-POSLLH, iTOW=08:32:04, lon=23.506002, lat=62.8040256, height=103148, hMSL=82803, hAcc=50, vAcc=88)>
<UBX(NAV-POSLLH, iTOW=08:32:05, lon=23.5057815, lat=62.8039804, height=102430, hMSL=82085, hAcc=63, vAcc=108)>
<UBX(NAV-POSLLH, iTOW=08:32:06, lon=23.5055541, lat=62.8039337, height=101628, hMSL=81283, hAcc=61, vAcc=109)>
<UBX(NAV-POSLLH, iTOW=08:32:07, lon=23.505321, lat=62.8038852, height=100795, hMSL=80450, hAcc=61, vAcc=115)>
<UBX(NAV-POSLLH, iTOW=08:32:08, lon=23.5050808, lat=62.803835, height=99965, hMSL=79620, hAcc=70, vAcc=125)>
<UBX(NAV-POSLLH, iTOW=08:32:09, lon=23.5048329, lat=62.8037845, height=99283, hMSL=78938, hAcc=66, vAcc=122)>
<UBX(NAV-POSLLH, iTOW=08:32:10, lon=23.5045808, lat=62.8037333, height=98753, hMSL=78408, hAcc=63, vAcc=128)>
<UBX(NAV-POSLLH, iTOW=08:32:11, lon=23.5043293, lat=62.8036827, height=98432, hMSL=78087, hAcc=68, vAcc=126)>
<UBX(NAV-POSLLH, iTOW=08:32:12, lon=23.5040774, lat=62.8036363, height=98163, hMSL=77818, hAcc=55, vAcc=93)>
<UBX(NAV-POSLLH, iTOW=08:32:13, lon=23.5038241, lat=62.8035965, height=97929, hMSL=77584, hAcc=50, vAcc=84)>
<UBX(NAV-POSLLH, iTOW=08:32:14, lon=23.5035703, lat=62.8035631, height=97754, hMSL=77408, hAcc=51, vAcc=76)>
<UBX(NAV-POSLLH, iTOW=08:32:15, lon=23.5033191, lat=62.8035349, height=97736, hMSL=77390, hAcc=54, vAcc=84)>
<UBX(NAV-POSLLH, iTOW=08:32:16, lon=23.5030717, lat=62.8035114, height=97756, hMSL=77411, hAcc=40, vAcc=70)>
<UBX(NAV-POSLLH, iTOW=08:32:17, lon=23.5028283, lat=62.8034895, height=97737, hMSL=77391, hAcc=34, vAcc=59)>
<UBX(NAV-POSLLH, iTOW=08:32:18, lon=23.502588, lat=62.8034671, height=97872, hMSL=77527, hAcc=34, vAcc=57)>
<UBX(NAV-POSLLH, iTOW=08:32:19, lon=23.5023531, lat=62.803445, height=98222, hMSL=77876, hAcc=39, vAcc=86)>
<UBX(NAV-POSLLH, iTOW=08:32:20, lon=23.5021255, lat=62.8034236, height=98726, hMSL=78380, hAcc=45, vAcc=101)>
<UBX(NAV-POSLLH, iTOW=08:32:21, lon=23.5019033, lat=62.8034036, height=99364, hMSL=79018, hAcc=50, vAcc=131)>
<UBX(NAV-POSLLH, iTOW=08:32:22, lon=23.5016876, lat=62.8033861, height=100151, hMSL=79805, hAcc=49, vAcc=135)>
<UBX(NAV-POSLLH, iTOW=08:32:23, lon=23.5014784, lat=62.8033717, height=100849, hMSL=80503, hAcc=63, vAcc=139)>
<UBX(NAV-POSLLH, iTOW=08:32:24, lon=23.501271, lat=62.8033654, height=101499, hMSL=81153, hAcc=46, vAcc=112)>
<UBX(NAV-POSLLH, iTOW=08:32:25, lon=23.5010635, lat=62.8033684, height=102128, hMSL=81781, hAcc=53, vAcc=152)>
<UBX(NAV-POSLLH, iTOW=08:32:26, lon=23.5008567, lat=62.8033807, height=102544, hMSL=82198, hAcc=95, vAcc=191)>
<UBX(NAV-POSLLH, iTOW=08:32:27, lon=23.5006548, lat=62.8034038, height=102684, hMSL=82337, hAcc=100, vAcc=216)>
<UBX(NAV-POSLLH, iTOW=08:32:28, lon=23.5004563, lat=62.8034338, height=103038, hMSL=82692, hAcc=100, vAcc=209)>
<UBX(NAV-POSLLH, iTOW=08:32:29, lon=23.5002602, lat=62.8034696, height=103231, hMSL=82884, hAcc=80, vAcc=163)>
<UBX(NAV-POSLLH, iTOW=08:32:30, lon=23.5000657, lat=62.8035096, height=103135, hMSL=82788, hAcc=96, vAcc=177)>
<UBX(NAV-POSLLH, iTOW=08:32:31, lon=23.4998719, lat=62.803553, height=102899, hMSL=82552, hAcc=146, vAcc=242)>
<UBX(NAV-POSLLH, iTOW=08:32:32, lon=23.4996827, lat=62.8035993, height=102740, hMSL=82392, hAcc=223, vAcc=364)>
<UBX(NAV-POSLLH, iTOW=08:32:33, lon=23.4994959, lat=62.80365, height=102743, hMSL=82396, hAcc=227, vAcc=392)>
<UBX(NAV-POSLLH, iTOW=08:32:34, lon=23.4993135, lat=62.8037034, height=102818, hMSL=82470, hAcc=215, vAcc=321)>
<UBX(NAV-POSLLH, iTOW=08:32:35, lon=23.4991379, lat=62.8037603, height=102741, hMSL=82393, hAcc=187, vAcc=294)>
<UBX(NAV-POSLLH, iTOW=08:32:36, lon=23.498975, lat=62.8038236, height=102785, hMSL=82437, hAcc=232, vAcc=378)>
<UBX(NAV-POSLLH, iTOW=08:32:37, lon=23.4988228, lat=62.8038929, height=102857, hMSL=82510, hAcc=282, vAcc=458)>
<UBX(NAV-POSLLH, iTOW=08:32:38, lon=23.4986837, lat=62.8039673, height=102837, hMSL=82489, hAcc=333, vAcc=539)>
<UBX(NAV-POSLLH, iTOW=08:32:39, lon=23.4985591, lat=62.804048, height=102784, hMSL=82435, hAcc=362, vAcc=591)>
<UBX(NAV-POSLLH, iTOW=08:32:40, lon=23.4984482, lat=62.8041326, height=102433, hMSL=82085, hAcc=391, vAcc=644)>
<UBX(NAV-POSLLH, iTOW=08:32:41, lon=23.49835, lat=62.8042227, height=102536, hMSL=82187, hAcc=273, vAcc=460)>
<UBX(NAV-POSLLH, iTOW=08:32:42, lon=23.4982536, lat=62.8043137, height=102649, hMSL=82300, hAcc=245, vAcc=390)>
<UBX(NAV-POSLLH, iTOW=08:32:43, lon=23.4981549, lat=62.8044043, height=102887, hMSL=82539, hAcc=200, vAcc=333)>
<UBX(NAV-POSLLH, iTOW=08:32:44, lon=23.4980552, lat=62.8044949, height=103122, hMSL=82773, hAcc=173, vAcc=296)>
<UBX(NAV-POSLLH, iTOW=08:32:45, lon=23.4979558, lat=62.804585, height=103348, hMSL=83000, hAcc=173, vAcc=298)>
<UBX(NAV-POSLLH, iTOW=08:32:46, lon=23.4978572, lat=62.8046741, height=103686, hMSL=83337, hAcc=195, vAcc=302)>
<UBX(NAV-POSLLH, iTOW=08:32:47, lon=23.4977595, lat=62.8047619, height=103884, hMSL=83534, hAcc=180, vAcc=300)>
<UBX(NAV-POSLLH, iTOW=08:32:48, lon=23.4976611, lat=62.8048487, height=104016, hMSL=83666, hAcc=171, vAcc=298)>
<UBX(NAV-POSLLH, iTOW=08:32:49, lon=23.4975627, lat=62.804934, height=104278, hMSL=83929, hAcc=173, vAcc=286)>
<UBX(NAV-POSLLH, iTOW=08:32:50, lon=23.4974665, lat=62.8050192, height=104375, hMSL=84026, hAcc=165, vAcc=268)>
<UBX(NAV-POSLLH, iTOW=08:32:51, lon=23.4973722, lat=62.8051039, height=104501, hMSL=84152, hAcc=173, vAcc=263)>
<UBX(NAV-POSLLH, iTOW=08:32:52, lon=23.4972785, lat=62.8051876, height=104611, hMSL=84262, hAcc=183, vAcc=273)>
<UBX(NAV-POSLLH, iTOW=08:32:53, lon=23.4971852, lat=62.8052705, height=104705, hMSL=84355, hAcc=213, vAcc=316)>
<UBX(NAV-POSLLH, iTOW=08:32:54, lon=23.4970937, lat=62.8053507, height=104613, hMSL=84263, hAcc=245, vAcc=363)>
<UBX(NAV-POSLLH, iTOW=08:32:55, lon=23.4970087, lat=62.8054301, height=104677, hMSL=84327, hAcc=218, vAcc=329)>
<UBX(NAV-POSLLH, iTOW=08:32:56, lon=23.4969344, lat=62.8055095, height=104812, hMSL=84462, hAcc=222, vAcc=317)>
<UBX(NAV-POSLLH, iTOW=08:32:57, lon=23.4968705, lat=62.8055881, height=104914, hMSL=84564, hAcc=228, vAcc=312)>
<UBX(NAV-POSLLH, iTOW=08:32:58, lon=23.4968031, lat=62.8056624, height=104847, hMSL=84497, hAcc=205, vAcc=306)>
<UBX(NAV-POSLLH, iTOW=08:32:59, lon=23.4967259, lat=62.8057322, height=104932, hMSL=84582, hAcc=176, vAcc=316)>
<UBX(NAV-POSLLH, iTOW=08:33:00, lon=23.4966473, lat=62.8057971, height=105151, hMSL=84800, hAcc=157, vAcc=303)>
<UBX(NAV-POSLLH, iTOW=08:33:01, lon=23.4965876, lat=62.8058572, height=105242, hMSL=84891, hAcc=148, vAcc=277)>
<UBX(NAV-POSLLH, iTOW=08:33:02, lon=23.4965589, lat=62.8059107, height=105260, hMSL=84909, hAcc=144, vAcc=252)>
<UBX(NAV-POSLLH, iTOW=08:33:03, lon=23.4965509, lat=62.8059532, height=105341, hMSL=84990, hAcc=143, vAcc=259)>
<UBX(NAV-POSLLH, iTOW=08:33:04, lon=23.4965499, lat=62.805982, height=105423, hMSL=85072, hAcc=143, vAcc=254)>
<UBX(NAV-POSLLH, iTOW=08:33:05, lon=23.4965495, lat=62.8059991, height=105513, hMSL=85162, hAcc=154, vAcc=281)>
<UBX(NAV-POSLLH, iTOW=08:33:06, lon=23.4965496, lat=62.8060066, height=105504, hMSL=85153, hAcc=146, vAcc=263)>
<UBX(NAV-POSLLH, iTOW=08:33:07, lon=23.4965497, lat=62.8060076, height=105525, hMSL=85174, hAcc=128, vAcc=213)>
<UBX(NAV-POSLLH, iTOW=08:33:08, lon=23.4965498, lat=62.8060074, height=105541, hMSL=85191, hAcc=121, vAcc=195)>
<UBX(NAV-POSLLH, iTOW=08:33:09, lon=23.4965499, lat=62.8060073, height=105552, hMSL=85201, hAcc=123, vAcc=193)>
<UBX(NAV-POSLLH, iTOW=08:33:10, lon=23.4965498, lat=62.8060073, height=105561, hMSL=85210, hAcc=114, vAcc=190)>
