<UBX(NAV-POSLLH, iTOW=08:05:02, lon=23.4964593, lat=62.8060583, height=105363, hMSL=85012, hAcc=3908, vAcc=8024)>
<UBX(NAV-POSLLH, iTOW=08:05:03, lon=23.4964598, lat=62.8060584, height=105479, hMSL=85128, hAcc=3279, vAcc=7223)>
<UBX(NAV-POSLLH, iTOW=08:05:04, lon=23.4964591, lat=62.8060588, height=105454, hMSL=85103, hAcc=2866, vAcc=6574)>
<UBX(NAV-POSLLH, iTOW=08:05:05, lon=23.4964586, lat=62.806059, height=105468, hMSL=85117, hAcc=2586, vAcc=6083)>
<UBX(NAV-POSLLH, iTOW=08:05:06, lon=23.496459, lat=62.8060592, height=105565, hMSL=85214, hAcc=2377, vAcc=5696)>
<UBX(NAV-POSLLH, iTOW=08:05:07, lon=23.4964594, lat=62.8060585, height=105493, hMSL=85142, hAcc=2240, vAcc=5412)>
<UBX(NAV-POSLLH, iTOW=08:05:08, lon=23.4964586, lat=62.8060522, height=105345, hMSL=84994, hAcc=2138, vAcc=5183)>
<UBX(NAV-POSLLH, iTOW=08:05:09, lon=23.4964496, lat=62.806038, height=104822, hMSL=84471, hAcc=1996, vAcc=4908)>
<UBX(NAV-POSLLH, iTOW=08:05:10, lon=23.4964422, lat=62.8060215, height=104883, hMSL=84532, hAcc=1882, vAcc=4655)>
<UBX(NAV-POSLLH, iTOW=08:05:11, lon=23.4964293, lat=62.8059994, height=104942, hMSL=84591, hAcc=1795, vAcc=4369)>
<UBX(NAV-POSLLH, iTOW=08:05:12, lon=23.4964107, lat=62.8059734, height=104993, hMSL=84642, hAcc=1721, vAcc=4066)>
<UBX(NAV-POSLLH, iTOW=08:05:13, lon=23.496395, lat=62.8059449, height=105054, hMSL=84703, hAcc=1606, vAcc=3745)>
<UBX(NAV-POSLLH, iTOW=08:05:14, lon=23.4963832, lat=62.8059166, height=105284, hMSL=84933, hAcc=1514, vAcc=3483)>
<UBX(NAV-POSLLH, iTOW=08:05:15, lon=23.496378, lat=62.805889, height=105449, hMSL=85098, hAcc=1446, vAcc=3287)>
<UBX(NAV-POSLLH, iTOW=08:05:16, lon=23.4963817, lat=62.8058632, height=105579, hMSL=85228, hAcc=1390, vAcc=3111)>
<UBX(NAV-POSLLH, iTOW=08:05:17, lon=23.4963947, lat=62.8058387, height=105677, hMSL=85326, hAcc=1341, vAcc=2966)>
<UBX(NAV-POSLLH, iTOW=08:05:18, lon=23.4964173, lat=62.8058133, height=105803, hMSL=85452, hAcc=1306, vAcc=2838)>
<UBX(NAV-POSLLH, iTOW=08:05:19, lon=23.496459, lat=62.805791, height=105847, hMSL=85496, hAcc=1277, vAcc=2738)>
<UBX(NAV-POSLLH, iTOW=08:05:20, lon=23.4965201, lat=62.8057777, height=106018, hMSL=85667, hAcc=1245, vAcc=2637)>
<UBX(NAV-POSLLH, iTOW=08:05:21, lon=23.496594, lat=62.8057799, height=105926, hMSL=85575, hAcc=1213, vAcc=2559)>
<UBX(NAV-POSLLH, iTOW=08:05:22, lon=23.4966613, lat=62.8057982, height=106061, hMSL=85710, hAcc=1177, vAcc=2498)>
<UBX(NAV-POSLLH, iTOW=08:05:23, lon=23.4967089, lat=62.8058296, height=106195, hMSL=85844, hAcc=1144, vAcc=2436)>
<UBX(NAV-POSLLH, iTOW=08:05:24, lon=23.4967318, lat=62.8058692, height=106392, hMSL=86041, hAcc=1109, vAcc=2367)>
<UBX(NAV-POSLLH, iTOW=08:05:25, lon=23.4967393, lat=62.8059173, height=106389, hMSL=86038, hAcc=1076, vAcc=2293)>
<UBX(NAV-POSLLH, iTOW=08:05:26, lon=23.4967433, lat=62.8059748, height=106305, hMSL=85955, hAcc=1051, vAcc=2241)>
<UBX(NAV-POSLLH, iTOW=08:05:27, lon=23.4967471, lat=62.8060413, height=106319, hMSL=85968, hAcc=1033, vAcc=2189)>
<UBX(NAV-POSLLH, iTOW=08:05:28, lon=23.4967503, lat=62.806116, height=106531, hMSL=86180, hAcc=1018, vAcc=2148)>
<UBX(NAV-POSLLH, iTOW=08:05:29, lon=23.4967557, lat=62.8061979, height=106624, hMSL=86273, hAcc=1007, vAcc=2116)>
<UBX(NAV-POSLLH, iTOW=08:05:30, lon=23.4967635, lat=62.8062839, height=106859, hMSL=86509, hAcc=992, vAcc=2090)>
<UBX(NAV-POSLLH, iTOW=08:05:31, lon=23.4967691, lat=62.8063692, height=106986, hMSL=86635, hAcc=981, vAcc=2066)>
<UBX(NAV-POSLLH, iTOW=08:05:32, lon=23.4967714, lat=62.8064514, height=106960, hMSL=86608, hAcc=972, vAcc=2065)>
<UBX(NAV-POSLLH, iTOW=08:05:33, lon=23.4967716, lat=62.8065328, height=107145, hMSL=86794, hAcc=967, vAcc=2045)>
<UBX(NAV-POSLLH, iTOW=08:05:34, lon=23.4967682, lat=62.8066166, height=106907, hMSL=86556, hAcc=963, vAcc=2015)>
<UBX(NAV-POSLLH, iTOW=08:05:35, lon=23.4967619, lat=62.8067035, height=106752, hMSL=86401, hAcc=953, vAcc=1990)>
<UBX(NAV-POSLLH, iTOW=08:05:36, lon=23.496753, lat=62.8067932, height=106502, hMSL=86150, hAcc=942, vAcc=1964)>
<UBX(NAV-POSLLH, iTOW=08:05:37, lon=23.4967391, lat=62.8068871, height=106141, hMSL=85790, hAcc=930, vAcc=1944)>
<UBX(NAV-POSLLH, iTOW=08:05:38, lon=23.4967248, lat=62.8069829, height=105991, hMSL=85639, hAcc=933, vAcc=1982)>
<UBX(NAV-POSLLH, iTOW=08:05:39, lon=23.4967101, lat=62.8070777, height=106034, hMSL=85683, hAcc=959, vAcc=2012)>
<UBX(NAV-POSLLH, iTOW=08:05:40, lon=23.49669, lat=62.8071711, height=106105, hMSL=85753, hAcc=978, vAcc=2046)>
<UBX(NAV-POSLLH, iTOW=08:05:41, lon=23.4966708, lat=62.8072613, height=106131, hMSL=85779, hAcc=974, vAcc=2091)>
<UBX(NAV-POSLLH, iTOW=08:05:42, lon=23.4966558, lat=62.8073491, height=106107, hMSL=85755, hAcc=971, vAcc=2075)>
<UBX(NAV-POSLLH, iTOW=08:05:43, lon=23.4966432, lat=62.8074369, height=106520, hMSL=86168, hAcc=967, vAcc=2050)>
<UBX(NAV-POSLLH, iTOW=08:05:44, lon=23.4966287, lat=62.8075263, height=106912, hMSL=86560, hAcc=961, vAcc=2021)>
<UBX(NAV-POSLLH, iTOW=08:05:45, lon=23.4966137, lat=62.8076167, height=106906, hMSL=86554, hAcc=951, vAcc=1995)>
<UBX(NAV-POSLLH, iTOW=08:05:46, lon=23.4965977, lat=62.8077084, height=106887, hMSL=86535, hAcc=947, vAcc=1969)>
<UBX(NAV-POSLLH, iTOW=08:05:47, lon=23.4965788, lat=62.8078017, height=107026, hMSL=86673, hAcc=942, vAcc=1934)>
<UBX(NAV-POSLLH, iTOW=08:05:48, lon=23.4965637, lat=62.8078966, height=107141, hMSL=86788, hAcc=938, vAcc=1913)>
<UBX(NAV-POSLLH, iTOW=08:05:49, lon=23.4965443, lat=62.8079936, height=106985, hMSL=86632, hAcc=940, vAcc=1906)>
<UBX(NAV-POSLLH, iTOW=08:05:50, lon=23.4965179, lat=62.8080903, height=107095, hMSL=86743, hAcc=952, vAcc=1896)>
<UBX(NAV-POSLLH, iTOW=08:05:51, lon=23.4964733, lat=62.8081844, height=107614, hMSL=87262, hAcc=982, vAcc=1922)>
<UBX(NAV-POSLLH, iTOW=08:05:52, lon=23.4964047, lat=62.8082765, height=107445, hMSL=87093, hAcc=974, vAcc=1876)>
<UBX(NAV-POSLLH, iTOW=08:05:53, lon=23.4963121, lat=62.8083639, height=107525, hMSL=87172, hAcc=952, vAcc=1839)>
<UBX(NAV-POSLLH, iTOW=08:05:54, lon=23.4961947, lat=62.8084465, height=107573, hMSL=87220, hAcc=932, vAcc=1799)>
<UBX(NAV-POSLLH, iTOW=08:05:55, lon=23.4960657, lat=62.8085256, height=107643, hMSL=87290, hAcc=920, vAcc=1758)>
<UBX(NAV-POSLLH, iTOW=08:05:56, lon=23.4959396, lat=62.8086057, height=107579, hMSL=87225, hAcc=905, vAcc=1715)>
<UBX(NAV-POSLLH, iTOW=08:05:57, lon=23.4958224, lat=62.8086894, height=107578, hMSL=87225, hAcc=894, vAcc=1681)>
<UBX(NAV-POSLLH, iTOW=08:05:58, lon=23.4957146, lat=62.8087768, height=107661, hMSL=87307, hAcc=884, vAcc=1649)>
<UBX(NAV-POSLLH, iTOW=08:05:59, lon=23.4956178, lat=62.8088666, height=107768, hMSL=87414, hAcc=879, vAcc=1625)>
<UBX(NAV-POSLLH, iTOW=08:06:00, lon=23.4955339, lat=62.8089567, height=108089, hMSL=87735, hAcc=881, vAcc=1608)>
<UBX(NAV-POSLLH, iTOW=08:06:01, lon=23.4954651, lat=62.8090463, height=108326, hMSL=87972, hAcc=878, vAcc=1592)>
<UBX(NAV-POSLLH, iTOW=08:06:02, lon=23.4954246, lat=62.8091354, height=108412, hMSL=88058, hAcc=873, vAcc=1575)>
<UBX(NAV-POSLLH, iTOW=08:06:03, lon=23.495414, lat=62.8092235, height=108452, hMSL=88097, hAcc=875, vAcc=1562)>
<UBX(NAV-POSLLH, iTOW=08:06:04, lon=23.495436, lat=62.8093111, height=108490, hMSL=88136, hAcc=876, vAcc=1553)>
<UBX(NAV-POSLLH, iTOW=08:06:05, lon=23.4954913, lat=62.8093966, height=108627, hMSL=88273, hAcc=868, vAcc=1536)>
<UBX(NAV-POSLLH, iTOW=08:06:06, lon=23.4955787, lat=62.8094777, height=108290, hMSL=87935, hAcc=861, vAcc=1521)>
<UBX(NAV-POSLLH, iTOW=08:06:07, lon=23.4956992, lat=62.8095525, height=108368, hMSL=88014, hAcc=864, vAcc=1510)>
<UBX(NAV-POSLLH, iTOW=08:06:08, lon=23.4958422, lat=62.809618, height=108178, hMSL=87824, hAcc=862, vAcc=1496)>
<UBX(NAV-POSLLH, iTOW=08:06:09, lon=23.4960003, lat=62.8096782, height=108082, hMSL=87728, hAcc=852, vAcc=1482)>
<UBX(NAV-POSLLH, iTOW=08:06:10, lon=23.4961705, lat=62.8097328, height=107736, hMSL=87382, hAcc=844, vAcc=1470)>
<UBX(NAV-POSLLH, iTOW=08:06:11, lon=23.4963431, lat=62.8097871, height=107518, hMSL=87164, hAcc=835, vAcc=1457)>
<UBX(NAV-POSLLH, iTOW=08:06:12, lon=23.4965189, lat=62.809842, height=107557, hMSL=87203, hAcc=830, vAcc=1450)>
<UBX(NAV-POSLLH, iTOW=08:06:13, lon=23.4966933, lat=62.8098982, height=107463, hMSL=87109, hAcc=824, vAcc=1440)>
<UBX(NAV-POSLLH, iTOW=08:06:14, lon=23.496866, lat=62.8099554, height=107261, hMSL=86907, hAcc=817, vAcc=1426)>
<UBX(NAV-POSLLH, iTOW=08:06:15, lon=23.4970395, lat=62.810012, height=106939, hMSL=86585, hAcc=808, vAcc=1412)>
<UBX(NAV-POSLLH, iTOW=08:06:16, lon=23.4972135, lat=62.8100702, height=106820, hMSL=86466, hAcc=802, vAcc=1403)>
<UBX(NAV-POSLLH, iTOW=08:06:17, lon=23.497387, lat=62.8101293, height=106622, hMSL=86268, hAcc=791, vAcc=1388)>
<UBX(NAV-POSLLH, iTOW=08:06:18, lon=23.4975592, lat=62.8101881, height=106510, hMSL=86157, hAcc=781, vAcc=1374)>
<UBX(NAV-POSLLH, iTOW=08:06:19, lon=23.497725, lat=62.8102491, height=106471, hMSL=86117, hAcc=771, vAcc=1361)>
<UBX(NAV-POSLLH, iTOW=08:06:20, lon=23.4978741, lat=62.8103164, height=106416, hMSL=86062, hAcc=767, vAcc=1348)>
<UBX(NAV-POSLLH, iTOW=08:06:21, lon=23.4980044, lat=62.8103913, height=106413, hMSL=86059, hAcc=767, vAcc=1334)>
<UBX(NAV-POSLLH, iTOW=08:06:22, lon=23.4981172, lat=62.8104723, height=106365, hMSL=86011, hAcc=764, vAcc=1320)>
<UBX(NAV-POSLLH, iTOW=08:06:23, lon=23.4982212, lat=62.8105565, height=106349, hMSL=85995, hAcc=759, vAcc=1307)>
<UBX(NAV-POSLLH, iTOW=08:06:24, lon=23.4983276, lat=62.8106406, height=106345, hMSL=85991, hAcc=760, vAcc=1303)>
<UBX(NAV-POSLLH, iTOW=08:06:25, lon=23.4984425, lat=62.8107233, height=106243, hMSL=85889, hAcc=757, vAcc=1296)>
<UBX(NAV-POSLLH, iTOW=08:06:26, lon=23.4985729, lat=62.8108015, height=105976, hMSL=85622, hAcc=754, vAcc=1291)>
<UBX(NAV-POSLLH, iTOW=08:06:27, lon=23.4987173, lat=62.8108746, height=105694, hMSL=85340, hAcc=751, vAcc=1284)>
<UBX(NAV-POSLLH, iTOW=08:06:28, lon=23.4988718, lat=62.8109426, height=105454, hMSL=85100, hAcc=754, vAcc=1293)>
<UBX(NAV-POSLLH, iTOW=08:06:29, lon=23.4990333, lat=62.8110067, height=105333, hMSL=84979, hAcc=759, vAcc=1297)>
<UBX(NAV-POSLLH, iTOW=08:06:30, lon=23.4991968, lat=62.8110701, height=105303, hMSL=84949, hAcc=761, vAcc=1294)>
<UBX(NAV-POSLLH, iTOW=08:06:31, lon=23.4993632, lat=62.811134, height=105374, hMSL=85020, hAcc=763, vAcc=1298)>
<UBX(NAV-POSLLH, iTOW=08:06:32, lon=23.4995307, lat=62.8111982, height=105394, hMSL=85040, hAcc=765, vAcc=1301)>
<UBX(NAV-POSLLH, iTOW=08:06:33, lon=23.4997013, lat=62.8112613, height=105408, hMSL=85054, hAcc=763, vAcc=1307)>
<UBX(NAV-POSLLH, iTOW=08:06:34, lon=23.4998741, lat=62.8113208, height=105362, hMSL=85008, hAcc=763, vAcc=1314)>
<UBX(NAV-POSLLH, iTOW=08:06:35, lon=23.5000532, lat=62.8113739, height=105348, hMSL=84995, hAcc=767, vAcc=1332)>
<UBX(NAV-POSLLH, iTOW=08:06:36, lon=23.5002411, lat=62.8114185, height=105668, hMSL=85315, hAcc=769, vAcc=1341)>
<UBX(NAV-POSLLH, iTOW=08:06:37, lon=23.5004349, lat=62.8114565, height=105879, hMSL=85525, hAcc=773, vAcc=1354)>
<UBX(NAV-POSLLH, iTOW=08:06:38, lon=23.5006323, lat=62.8114908, height=106049, hMSL=85696, hAcc=779, vAcc=1362)>
<UBX(NAV-POSLLH, iTOW=08:06:39, lon=23.5008307, lat=62.8115219, height=106050, hMSL=85697, hAcc=776, vAcc=1365)>
<UBX(NAV-POSLLH, iTOW=08:06:40, lon=23.5010296, lat=62.8115517, height=106264, hMSL=85911, hAcc=772, vAcc=1366)>
<UBX(NAV-POSLLH, iTOW=08:06:41, lon=23.5012274, lat=62.8115814, height=106625, hMSL=86271, hAcc=763, vAcc=1360)>
<UBX(NAV-POSLLH, iTOW=08:06:42, lon=23.5014229, lat=62.8116111, height=106943, hMSL=86589, hAcc=756, vAcc=1356)>
<UBX(NAV-POSLLH, iTOW=08:06:43, lon=23.5016171, lat=62.8116406, height=107124, hMSL=86771, hAcc=752, vAcc=1350)>
<UBX(NAV-POSLLH, iTOW=08:06:44, lon=23.5018086, lat=62.8116708, height=106936, hMSL=86583, hAcc=748, vAcc=1338)>
<UBX(NAV-POSLLH, iTOW=08:06:45, lon=23.5019983, lat=62.8117039, height=107077, hMSL=86724, hAcc=744, vAcc=1328)>
<UBX(NAV-POSLLH, iTOW=08:06:46, lon=23.5021805, lat=62.8117444, height=107295, hMSL=86942, hAcc=735, vAcc=1313)>
<UBX(NAV-POSLLH, iTOW=08:06:47, lon=23.502346, lat=62.8117957, height=107537, hMSL=87184, hAcc=729, vAcc=1307)>
<UBX(NAV-POSLLH, iTOW=08:06:48, lon=23.5024898, lat=62.8118576, height=107833, hMSL=87480, hAcc=724, vAcc=1301)>
<UBX(NAV-POSLLH, iTOW=08:06:49, lon=23.5026084, lat=62.8119289, height=108039, hMSL=87686, hAcc=726, vAcc=1293)>
<UBX(NAV-POSLLH, iTOW=08:06:50, lon=23.5026965, lat=62.8120085, height=108120, hMSL=87767, hAcc=735, vAcc=1288)>
<UBX(NAV-POSLLH, iTOW=08:06:51, lon=23.5027652, lat=62.8120919, height=108144, hMSL=87791, hAcc=743, vAcc=1291)>
<UBX(NAV-POSLLH, iTOW=08:06:52, lon=23.5028259, lat=62.8121771, height=108231, hMSL=87878, hAcc=748, vAcc=1298)>
<UBX(NAV-POSLLH, iTOW=08:06:53, lon=23.5028836, lat=62.8122633, height=108402, hMSL=88049, hAcc=749, vAcc=1295)>
<UBX(NAV-POSLLH, iTOW=08:06:54, lon=23.5029396, lat=62.8123485, height=108584, hMSL=88231, hAcc=745, vAcc=1293)>
<UBX(NAV-POSLLH, iTOW=08:06:55, lon=23.5029938, lat=62.8124316, height=108666, hMSL=88313, hAcc=739, vAcc=1285)>
<UBX(NAV-POSLLH, iTOW=08:06:56, lon=23.5030454, lat=62.8125116, height=108859, hMSL=88506, hAcc=735, vAcc=1275)>
<UBX(NAV-POSLLH, iTOW=08:06:57, lon=23.5030928, lat=62.8125833, height=108885, hMSL=88532, hAcc=736, vAcc=1268)>
<UBX(NAV-POSLLH, iTOW=08:06:58, lon=23.503132, lat=62.812641, height=108918, hMSL=88565, hAcc=733, vAcc=1266)>
<UBX(NAV-POSLLH, iTOW=08:06:59, lon=23.5031597, lat=62.8126837, height=108859, hMSL=88505, hAcc=728, vAcc=1255)>
<UBX(NAV-POSLLH, iTOW=08:07:00, lon=23.5031811, lat=62.8127132, height=108907, hMSL=88554, hAcc=720, vAcc=1240)>
<UBX(NAV-POSLLH, iTOW=08:07:01, lon=23.503199, lat=62.8127362, height=108918, hMSL=88565, hAcc=711, vAcc=1224)>
<UBX(NAV-POSLLH, iTOW=08:07:02, lon=23.5032164, lat=62.8127564, height=108911, hMSL=88558, hAcc=701, vAcc=1209)>
<UBX(NAV-POSLLH, iTOW=08:07:03, lon=23.5032349, lat=62.8127755, height=108901, hMSL=88547, hAcc=693, vAcc=1196)>
<UBX(NAV-POSLLH, iTOW=08:07:04, lon=23.5032602, lat=62.812797, height=108953, hMSL=88599, hAcc=682, vAcc=1181)>
<UBX(NAV-POSLLH, iTOW=08:07:05, lon=23.5033025, lat=62.8128212, height=108959, hMSL=88606, hAcc=675, vAcc=1171)>
<UBX(NAV-POSLLH, iTOW=08:07:06, lon=23.5033719, lat=62.8128395, height=108913, hMSL=88559, hAcc=670, vAcc=1164)>
<UBX(NAV-POSLLH, iTOW=08:07:07, lon=23.5034599, lat=62.8128416, height=108924, hMSL=88571, hAcc=660, vAcc=1151)>
<UBX(NAV-POSLLH, iTOW=08:07:08, lon=23.5035441, lat=62.8128218, height=108922, hMSL=88569, hAcc=655, vAcc=1147)>
<UBX(NAV-POSLLH, iTOW=08:07:09, lon=23.5036104, lat=62.8127808, height=108921, hMSL=88568, hAcc=649, vAcc=1143)>
<UBX(NAV-POSLLH, iTOW=08:07:10, lon=23.5036714, lat=62.8127248, height=108979, hMSL=88626, hAcc=644, vAcc=1138)>
<UBX(NAV-POSLLH, iTOW=08:07:11, lon=23.503742, lat=62.812658, height=109010, hMSL=88657, hAcc=642, vAcc=1136)>
<UBX(NAV-POSLLH, iTOW=08:07:12, lon=23.5038251, lat=62.8125821, height=109026, hMSL=88673, hAcc=639, vAcc=1136)>
<UBX(NAV-POSLLH, iTOW=08:07:13, lon=23.5039182, lat=62.8124972, height=109028, hMSL=88675, hAcc=634, vAcc=1132)>
<UBX(NAV-POSLLH, iTOW=08:07:14, lon=23.5040143, lat=62.8124087, height=109004, hMSL=88652, hAcc=629, vAcc=1130)>
<UBX(NAV-POSLLH, iTOW=08:07:15, lon=23.5041074, lat=62.8123199, height=109002, hMSL=88649, hAcc=622, vAcc=1123)>
<UBX(NAV-POSLLH, iTOW=08:07:16, lon=23.5041975, lat=62.8122303, height=108947, hMSL=88594, hAcc=614, vAcc=1115)>
<UBX(NAV-POSLLH, iTOW=08:07:17, lon=23.5042872, lat=62.8121377, height=108924, hMSL=88572, hAcc=607, vAcc=1108)>
<UBX(NAV-POSLLH, iTOW=08:07:18, lon=23.5043756, lat=62.8120432, height=108852, hMSL=88500, hAcc=600, vAcc=1102)>
<UBX(NAV-POSLLH, iTOW=08:07:19, lon=23.5044603, lat=62.8119485, height=108825, hMSL=88473, hAcc=592, vAcc=1085)>
<UBX(NAV-POSLLH, iTOW=08:07:20, lon=23.5045402, lat=62.8118548, height=108755, hMSL=88403, hAcc=585, vAcc=1070)>
<UBX(NAV-POSLLH, iTOW=08:07:21, lon=23.5046149, lat=62.8117621, height=108746, hMSL=88395, hAcc=582, vAcc=1061)>
<UBX(NAV-POSLLH, iTOW=08:07:22, lon=23.5046855, lat=62.8116691, height=108703, hMSL=88352, hAcc=582, vAcc=1054)>
<UBX(NAV-POSLLH, iTOW=08:07:23, lon=23.5047527, lat=62.811575, height=108633, hMSL=88282, hAcc=581, vAcc=1049)>
<UBX(NAV-POSLLH, iTOW=08:07:24, lon=23.5048137, lat=62.8114797, height=108642, hMSL=88291, hAcc=580, vAcc=1045)>
<UBX(NAV-POSLLH, iTOW=08:07:25, lon=23.5048685, lat=62.8113849, height=108618, hMSL=88267, hAcc=574, vAcc=1034)>
<UBX(NAV-POSLLH, iTOW=08:07:26, lon=23.504918, lat=62.8112913, height=108596, hMSL=88245, hAcc=569, vAcc=1026)>
<UBX(NAV-POSLLH, iTOW=08:07:27, lon=23.5049637, lat=62.8111987, height=108536, hMSL=88185, hAcc=567, vAcc=1019)>
<UBX(NAV-POSLLH, iTOW=08:07:28, lon=23.5050049, lat=62.8111064, height=108465, hMSL=88114, hAcc=568, vAcc=1016)>
<UBX(NAV-POSLLH, iTOW=08:07:29, lon=23.505041, lat=62.8110151, height=108406, hMSL=88055, hAcc=566, vAcc=1012)>
<UBX(NAV-POSLLH, iTOW=08:07:30, lon=23.5050722, lat=62.8109244, height=108319, hMSL=87968, hAcc=562, vAcc=1006)>
<UBX(NAV-POSLLH, iTOW=08:07:31, lon=23.5050981, lat=62.8108331, height=108247, hMSL=87897, hAcc=557, vAcc=999)>
<UBX(NAV-POSLLH, iTOW=08:07:32, lon=23.5051191, lat=62.8107419, height=108195, hMSL=87844, hAcc=552, vAcc=992)>
<UBX(NAV-POSLLH, iTOW=08:07:33, lon=23.5051351, lat=62.8106524, height=108162, hMSL=87811, hAcc=548, vAcc=985)>
<UBX(NAV-POSLLH, iTOW=08:07:34, lon=23.5051478, lat=62.8105648, height=108151, hMSL=87800, hAcc=545, vAcc=976)>
<UBX(NAV-POSLLH, iTOW=08:07:35, lon=23.5051577, lat=62.8104808, height=108184, hMSL=87833, hAcc=548, vAcc=975)>
<UBX(NAV-POSLLH, iTOW=08:07:36, lon=23.5051649, lat=62.8104028, height=108246, hMSL=87896, hAcc=552, vAcc=975)>
<UBX(NAV-POSLLH, iTOW=08:07:37, lon=23.505171, lat=62.8103317, height=108277, hMSL=87926, hAcc=554, vAcc=973)>
<UBX(NAV-POSLLH, iTOW=08:07:38, lon=23.5051773, lat=62.8102653, height=108300, hMSL=87950, hAcc=553, vAcc=970)>
<UBX(NAV-POSLLH, iTOW=08:07:39, lon=23.5051837, lat=62.8102012, height=108357, hMSL=88007, hAcc=551, vAcc=967)>
<UBX(NAV-POSLLH, iTOW=08:07:40, lon=23.5051907, lat=62.8101333, height=108366, hMSL=88016, hAcc=547, vAcc=961)>
<UBX(NAV-POSLLH, iTOW=08:07:41, lon=23.5051987, lat=62.8100577, height=108374, hMSL=88024, hAcc=545, vAcc=956)>
<UBX(NAV-POSLLH, iTOW=08:07:42, lon=23.5052078, lat=62.8099737, height=108420, hMSL=88070, hAcc=542, vAcc=948)>
<UBX(NAV-POSLLH, iTOW=08:07:43, lon=23.505217, lat=62.8098803, height=108471, hMSL=88121, hAcc=539, vAcc=939)>
<UBX(NAV-POSLLH, iTOW=08:07:44, lon=23.5052257, lat=62.809779, height=108532, hMSL=88182, hAcc=537, vAcc=933)>
<UBX(NAV-POSLLH, iTOW=08:07:45, lon=23.5052352, lat=62.8096766, height=108557, hMSL=88208, hAcc=537, vAcc=930)>
<UBX(NAV-POSLLH, iTOW=08:07:46, lon=23.5052447, lat=62.8095765, height=108602, hMSL=88253, hAcc=542, vAcc=931)>
<UBX(NAV-POSLLH, iTOW=08:07:47, lon=23.5052562, lat=62.8094787, height=108644, hMSL=88295, hAcc=545, vAcc=932)>
<UBX(NAV-POSLLH, iTOW=08:07:48, lon=23.5052729, lat=62.8093816, height=108723, hMSL=88373, hAcc=544, vAcc=931)>
<UBX(NAV-POSLLH, iTOW=08:07:49, lon=23.5052943, lat=62.8092846, height=108787, hMSL=88437, hAcc=542, vAcc=927)>
<UBX(NAV-POSLLH, iTOW=08:07:50, lon=23.5053193, lat=62.8091879, height=108839, hMSL=88490, hAcc=537, vAcc=921)>
<UBX(NAV-POSLLH, iTOW=08:07:51, lon=23.5053465, lat=62.8090912, height=108881, hMSL=88532, hAcc=533, vAcc=914)>
<UBX(NAV-POSLLH, iTOW=08:07:52, lon=23.5053748, lat=62.8089942, height=108938, hMSL=88589, hAcc=529, vAcc=909)>
<UBX(NAV-POSLLH, iTOW=08:07:53, lon=23.505405, lat=62.808897, height=109001, hMSL=88652, hAcc=525, vAcc=903)>
<UBX(NAV-POSLLH, iTOW=08:07:54, lon=23.5054383, lat=62.8087997, height=109084, hMSL=88735, hAcc=523, vAcc=900)>
<UBX(NAV-POSLLH, iTOW=08:07:55, lon=23.5054763, lat=62.8087023, height=109155, hMSL=88806, hAcc=523, vAcc=902)>
<UBX(NAV-POSLLH, iTOW=08:07:56, lon=23.5055205, lat=62.8086052, height=109206, hMSL=88858, hAcc=522, vAcc=903)>
<UBX(NAV-POSLLH, iTOW=08:07:57, lon=23.5055717, lat=62.8085088, height=109298, hMSL=88950, hAcc=521, vAcc=903)>
<UBX(NAV-POSLLH, iTOW=08:07:58, lon=23.5056311, lat=62.8084139, height=109378, hMSL=89029, hAcc=518, vAcc=899)>
<UBX(NAV-POSLLH, iTOW=08:07:59, lon=23.5056992, lat=62.808321, height=109431, hMSL=89083, hAcc=516, vAcc=895)>
<UBX(NAV-POSLLH, iTOW=08:08:00, lon=23.5057766, lat=62.8082305, height=109429, hMSL=89081, hAcc=513, vAcc=890)>
<UBX(NAV-POSLLH, iTOW=08:08:01, lon=23.5058604, lat=62.8081437, height=109457, hMSL=89109, hAcc=510, vAcc=884)>
<UBX(NAV-POSLLH, iTOW=08:08:02, lon=23.5059481, lat=62.8080612, height=109536, hMSL=89188, hAcc=510, vAcc=882)>
<UBX(NAV-POSLLH, iTOW=08:08:03, lon=23.5060348, lat=62.8079845, height=109568, hMSL=89220, hAcc=510, vAcc=881)>
<UBX(NAV-POSLLH, iTOW=08:08:04, lon=23.5061141, lat=62.8079166, height=109574, hMSL=89226, hAcc=508, vAcc=877)>
<UBX(NAV-POSLLH, iTOW=08:08:05, lon=23.5061821, lat=62.8078585, height=109607, hMSL=89260, hAcc=506, vAcc=874)>
<UBX(NAV-POSLLH, iTOW=08:08:06, lon=23.5062389, lat=62.8078103, height=109619, hMSL=89272, hAcc=504, vAcc=873)>
<UBX(NAV-POSLLH, iTOW=08:08:07, lon=23.5062897, lat=62.8077676, height=109698, hMSL=89351, hAcc=503, vAcc=871)>
<UBX(NAV-POSLLH, iTOW=08:08:08, lon=23.5063359, lat=62.8077284, height=109723, hMSL=89376, hAcc=502, vAcc=871)>
<UBX(NAV-POSLLH, iTOW=08:08:09, lon=23.5063803, lat=62.80769, height=109767, hMSL=89419, hAcc=502, vAcc=871)>
<UBX(NAV-POSLLH, iTOW=08:08:10, lon=23.506425, lat=62.8076513, height=109788, hMSL=89440, hAcc=504, vAcc=873)>
<UBX(NAV-POSLLH, iTOW=08:08:11, lon=23.5064679, lat=62.8076123, height=109724, hMSL=89377, hAcc=503, vAcc=872)>
<UBX(NAV-POSLLH, iTOW=08:08:12, lon=23.5065088, lat=62.8075734, height=109764, hMSL=89417, hAcc=502, vAcc=870)>
<UBX(NAV-POSLLH, iTOW=08:08:13, lon=23.5065528, lat=62.8075272, height=109824, hMSL=89477, hAcc=501, vAcc=867)>
<UBX(NAV-POSLLH, iTOW=08:08:14, lon=23.5066025, lat=62.8074693, height=109854, hMSL=89507, hAcc=500, vAcc=864)>
<UBX(NAV-POSLLH, iTOW=08:08:15, lon=23.5066564, lat=62.807399, height=109920, hMSL=89573, hAcc=500, vAcc=864)>
<UBX(NAV-POSLLH, iTOW=08:08:16, lon=23.5067056, lat=62.8073243, height=109922, hMSL=89575, hAcc=502, vAcc=865)>
<UBX(NAV-POSLLH, iTOW=08:08:17, lon=23.5067453, lat=62.8072501, height=109982, hMSL=89635, hAcc=502, vAcc=866)>
<UBX(NAV-POSLLH, iTOW=08:08:18, lon=23.5067786, lat=62.8071735, height=110054, hMSL=89707, hAcc=504, vAcc=868)>
<UBX(NAV-POSLLH, iTOW=08:08:19, lon=23.5068068, lat=62.8070902, height=110026, hMSL=89679, hAcc=502, vAcc=866)>
<UBX(NAV-POSLLH, iTOW=08:08:20, lon=23.5068274, lat=62.8069994, height=110016, hMSL=89670, hAcc=500, vAcc=863)>
<UBX(NAV-POSLLH, iTOW=08:08:21, lon=23.5068367, lat=62.8069045, height=110024, hMSL=89678, hAcc=498, vAcc=859)>
<UBX(NAV-POSLLH, iTOW=08:08:22, lon=23.5068347, lat=62.8068101, height=109999, hMSL=89653, hAcc=496, vAcc=855)>
<UBX(NAV-POSLLH, iTOW=08:08:23, lon=23.5068237, lat=62.8067171, height=109988, hMSL=89642, hAcc=494, vAcc=852)>
<UBX(NAV-POSLLH, iTOW=08:08:24, lon=23.5068068, lat=62.8066234, height=109963, hMSL=89616, hAcc=493, vAcc=851)>
<UBX(NAV-POSLLH, iTOW=08:08:25, lon=23.5067873, lat=62.8065277, height=109950, hMSL=89604, hAcc=495, vAcc=852)>
<UBX(NAV-POSLLH, iTOW=08:08:26, lon=23.506768, lat=62.8064311, height=109833, hMSL=89487, hAcc=496, vAcc=854)>
<UBX(NAV-POSLLH, iTOW=08:08:27, lon=23.5067472, lat=62.8063337, height=109707, hMSL=89361, hAcc=500, vAcc=860)>
<UBX(NAV-POSLLH, iTOW=08:08:28, lon=23.5067248, lat=62.8062357, height=109635, hMSL=89289, hAcc=506, vAcc=865)>
<UBX(NAV-POSLLH, iTOW=08:08:29, lon=23.5067034, lat=62.8061375, height=109744, hMSL=89398, hAcc=508, vAcc=866)>
<UBX(NAV-POSLLH, iTOW=08:08:30, lon=23.5066858, lat=62.806039, height=109750, hMSL=89404, hAcc=508, vAcc=866)>
<UBX(NAV-POSLLH, iTOW=08:08:31, lon=23.5066738, lat=62.80594, height=109703, hMSL=89358, hAcc=510, vAcc=868)>
<UBX(NAV-POSLLH, iTOW=08:08:32, lon=23.5066693, lat=62.8058406, height=109587, hMSL=89241, hAcc=514, vAcc=871)>
<UBX(NAV-POSLLH, iTOW=08:08:33, lon=23.5066757, lat=62.8057409, height=109545, hMSL=89199, hAcc=516, vAcc=872)>
<UBX(NAV-POSLLH, iTOW=08:08:34, lon=23.5066935, lat=62.8056413, height=109512, hMSL=89167, hAcc=515, vAcc=873)>
<UBX(NAV-POSLLH, iTOW=08:08:35, lon=23.5067231, lat=62.8055422, height=109475, hMSL=89130, hAcc=512, vAcc=872)>
<UBX(NAV-POSLLH, iTOW=08:08:36, lon=23.5067627, lat=62.8054438, height=109422, hMSL=89077, hAcc=509, vAcc=868)>
<UBX(NAV-POSLLH, iTOW=08:08:37, lon=23.5068085, lat=62.8053462, height=109405, hMSL=89060, hAcc=507, vAcc=867)>
<UBX(NAV-POSLLH, iTOW=08:08:38, lon=23.5068557, lat=62.805249, height=109368, hMSL=89023, hAcc=506, vAcc=866)>
<UBX(NAV-POSLLH, iTOW=08:08:39, lon=23.5069021, lat=62.8051519, height=109295, hMSL=88950, hAcc=505, vAcc=866)>
<UBX(NAV-POSLLH, iTOW=08:08:40, lon=23.5069477, lat=62.8050551, height=109241, hMSL=88896, hAcc=504, vAcc=866)>
<UBX(NAV-POSLLH, iTOW=08:08:41, lon=23.5069938, lat=62.8049587, height=109205, hMSL=88860, hAcc=503, vAcc=864)>
<UBX(NAV-POSLLH, iTOW=08:08:42, lon=23.5070412, lat=62.8048629, height=109178, hMSL=88834, hAcc=501, vAcc=862)>
<UBX(NAV-POSLLH, iTOW=08:08:43, lon=23.5070887, lat=62.8047683, height=109139, hMSL=88795, hAcc=499, vAcc=860)>
<UBX(NAV-POSLLH, iTOW=08:08:44, lon=23.5071354, lat=62.8046755, height=109085, hMSL=88740, hAcc=498, vAcc=859)>
<UBX(NAV-POSLLH, iTOW=08:08:45, lon=23.5071804, lat=62.8045871, height=109035, hMSL=88691, hAcc=497, vAcc=858)>
<UBX(NAV-POSLLH, iTOW=08:08:46, lon=23.5072218, lat=62.8045071, height=108990, hMSL=88646, hAcc=496, vAcc=858)>
<UBX(NAV-POSLLH, iTOW=08:08:47, lon=23.5072574, lat=62.8044377, height=108962, hMSL=88618, hAcc=495, vAcc=857)>
<UBX(NAV-POSLLH, iTOW=08:08:48, lon=23.5072864, lat=62.8043798, height=108957, hMSL=88613, hAcc=494, vAcc=855)>
<UBX(NAV-POSLLH, iTOW=08:08:49, lon=23.5072998, lat=62.8043325, height=108942, hMSL=88598, hAcc=492, vAcc=853)>
<UBX(NAV-POSLLH, iTOW=08:08:50, lon=23.5072876, lat=62.8042907, height=108903, hMSL=88559, hAcc=491, vAcc=850)>
<UBX(NAV-POSLLH, iTOW=08:08:51, lon=23.5072448, lat=62.8042549, height=108835, hMSL=88491, hAcc=491, vAcc=849)>
<UBX(NAV-POSLLH, iTOW=08:08:52, lon=23.5071698, lat=62.8042278, height=108658, hMSL=88314, hAcc=494, vAcc=850)>
<UBX(NAV-POSLLH, iTOW=08:08:53, lon=23.507064, lat=62.8042094, height=108321, hMSL=87977, hAcc=499, vAcc=853)>
<UBX(NAV-POSLLH, iTOW=08:08:54, lon=23.5069342, lat=62.8041917, height=107926, hMSL=87582, hAcc=502, vAcc=854)>
<UBX(NAV-POSLLH, iTOW=08:08:55, lon=23.5067837, lat=62.8041682, height=107390, hMSL=87046, hAcc=504, vAcc=857)>
<UBX(NAV-POSLLH, iTOW=08:08:56, lon=23.5066116, lat=62.8041381, height=106770, hMSL=86426, hAcc=506, vAcc=862)>
<UBX(NAV-POSLLH, iTOW=08:08:57, lon=23.5064221, lat=62.8041025, height=106136, hMSL=85792, hAcc=507, vAcc=865)>
<UBX(NAV-POSLLH, iTOW=08:08:58, lon=23.5062235, lat=62.8040642, height=105469, hMSL=85124, hAcc=507, vAcc=867)>
<UBX(NAV-POSLLH, iTOW=08:08:59, lon=23.5060186, lat=62.804024, height=104792, hMSL=84447, hAcc=508, vAcc=869)>
<UBX(NAV-POSLLH, iTOW=08:09:00, lon=23.5058056, lat=62.8039813, height=104120, hMSL=83776, hAcc=510, vAcc=868)>
<UBX(NAV-POSLLH, iTOW=08:09:01, lon=23.505583, lat=62.803936, height=103359, hMSL=83014, hAcc=517, vAcc=872)>
<UBX(NAV-POSLLH, iTOW=08:09:02, lon=23.5053529, lat=62.803889, height=102526, hMSL=82181, hAcc=523, vAcc=876)>
<UBX(NAV-POSLLH, iTOW=08:09:03, lon=23.505118, lat=62.8038412, height=101711, hMSL=81366, hAcc=526, vAcc=881)>
<UBX(NAV-POSLLH, iTOW=08:09:04, lon=23.50488, lat=62.8037935, height=101023, hMSL=80678, hAcc=529, vAcc=886)>
<UBX(NAV-POSLLH, iTOW=08:09:05, lon=23.5046406, lat=62.8037463, height=100459, hMSL=80114, hAcc=531, vAcc=891)>
<UBX(NAV-POSLLH, iTOW=08:09:06, lon=23.5044009, lat=62.8036995, height=99992, hMSL=79647, hAcc=530, vAcc=892)>
<UBX(NAV-POSLLH, iTOW=08:09:07, lon=23.5041646, lat=62.8036528, height=99634, hMSL=79289, hAcc=528, vAcc=891)>
<UBX(NAV-POSLLH, iTOW=08:09:08, lon=23.5039274, lat=62.8036133, height=99434, hMSL=79089, hAcc=525, vAcc=888)>
<UBX(NAV-POSLLH, iTOW=08:09:09, lon=23.5036881, lat=62.803581, height=99116, hMSL=78771, hAcc=523, vAcc=884)>
<UBX(NAV-POSLLH, iTOW=08:09:10, lon=23.5034479, lat=62.8035534, height=98999, hMSL=78654, hAcc=521, vAcc=879)>
<UBX(NAV-POSLLH, iTOW=08:09:11, lon=23.5032095, lat=62.8035278, height=99003, hMSL=78658, hAcc=519, vAcc=879)>
<UBX(NAV-POSLLH, iTOW=08:09:12, lon=23.5029735, lat=62.8035035, height=98938, hMSL=78593, hAcc=517, vAcc=874)>
<UBX(NAV-POSLLH, iTOW=08:09:13, lon=23.5027392, lat=62.8034805, height=98979, hMSL=78634, hAcc=514, vAcc=870)>
<UBX(NAV-POSLLH, iTOW=08:09:14, lon=23.5025079, lat=62.8034586, height=99212, hMSL=78866, hAcc=510, vAcc=864)>
<UBX(NAV-POSLLH, iTOW=08:09:15, lon=23.5022814, lat=62.8034378, height=99629, hMSL=79283, hAcc=510, vAcc=862)>
<UBX(NAV-POSLLH, iTOW=08:09:16, lon=23.502063, lat=62.8034179, height=100126, hMSL=79780, hAcc=510, vAcc=862)>
<UBX(NAV-POSLLH, iTOW=08:09:17, lon=23.5018526, lat=62.8034001, height=100706, hMSL=80360, hAcc=511, vAcc=863)>
<UBX(NAV-POSLLH, iTOW=08:09:18, lon=23.5016481, lat=62.8033843, height=101405, hMSL=81059, hAcc=514, vAcc=867)>
<UBX(NAV-POSLLH, iTOW=08:09:19, lon=23.5014489, lat=62.8033718, height=102144, hMSL=81798, hAcc=514, vAcc=867)>
<UBX(NAV-POSLLH, iTOW=08:09:20, lon=23.5012518, lat=62.8033661, height=102688, hMSL=82342, hAcc=515, vAcc=865)>
<UBX(NAV-POSLLH, iTOW=08:09:21, lon=23.5010553, lat=62.8033685, height=103228, hMSL=82882, hAcc=524, vAcc=871)>
<UBX(NAV-POSLLH, iTOW=08:09:22, lon=23.5008606, lat=62.8033798, height=103739, hMSL=83392, hAcc=538, vAcc=889)>
<UBX(NAV-POSLLH, iTOW=08:09:23, lon=23.5006693, lat=62.8034005, height=103881, hMSL=83534, hAcc=545, vAcc=904)>
<UBX(NAV-POSLLH, iTOW=08:09:24, lon=23.5004793, lat=62.8034295, height=104267, hMSL=83920, hAcc=550, vAcc=921)>
<UBX(NAV-POSLLH, iTOW=08:09:25, lon=23.5002882, lat=62.8034644, height=104421, hMSL=84074, hAcc=553, vAcc=923)>
<UBX(NAV-POSLLH, iTOW=08:09:26, lon=23.5000963, lat=62.8035035, height=104355, hMSL=84008, hAcc=553, vAcc=922)>
<UBX(NAV-POSLLH, iTOW=08:09:27, lon=23.4999054, lat=62.8035457, height=104194, hMSL=83847, hAcc=561, vAcc=930)>
<UBX(NAV-POSLLH, iTOW=08:09:28, lon=23.4997198, lat=62.8035915, height=104210, hMSL=83863, hAcc=569, vAcc=943)>
<UBX(NAV-POSLLH, iTOW=08:09:29, lon=23.4995377, lat=62.8036399, height=104134, hMSL=83786, hAcc=576, vAcc=956)>
<UBX(NAV-POSLLH, iTOW=08:09:30, lon=23.4993606, lat=62.8036906, height=104322, hMSL=83974, hAcc=585, vAcc=971)>
<UBX(NAV-POSLLH, iTOW=08:09:31, lon=23.4991871, lat=62.8037419, height=104183, hMSL=83836, hAcc=590, vAcc=977)>
<UBX(NAV-POSLLH, iTOW=08:09:32, lon=23.4990248, lat=62.803797, height=104152, hMSL=83804, hAcc=599, vAcc=1002)>
<UBX(NAV-POSLLH, iTOW=08:09:33, lon=23.4988802, lat=62.8038578, height=103845, hMSL=83497, hAcc=613, vAcc=1034)>
<UBX(NAV-POSLLH, iTOW=08:09:34, lon=23.4987499, lat=62.8039255, height=104153, hMSL=83805, hAcc=626, vAcc=1061)>
<UBX(NAV-POSLLH, iTOW=08:09:35, lon=23.4986298, lat=62.803998, height=104147, hMSL=83799, hAcc=637, vAcc=1081)>
<UBX(NAV-POSLLH, iTOW=08:09:36, lon=23.4985208, lat=62.8040763, height=104116, hMSL=83768, hAcc=641, vAcc=1082)>
<UBX(NAV-POSLLH, iTOW=08:09:37, lon=23.4984183, lat=62.8041589, height=104284, hMSL=83936, hAcc=640, vAcc=1079)>
<UBX(NAV-POSLLH, iTOW=08:09:38, lon=23.4983196, lat=62.8042442, height=104485, hMSL=84136, hAcc=640, vAcc=1073)>
<UBX(NAV-POSLLH, iTOW=08:09:39, lon=23.4982205, lat=62.80433, height=104926, hMSL=84577, hAcc=637, vAcc=1060)>
<UBX(NAV-POSLLH, iTOW=08:09:40, lon=23.4981224, lat=62.8044169, height=105275, hMSL=84927, hAcc=634, vAcc=1050)>
<UBX(NAV-POSLLH, iTOW=08:09:41, lon=23.4980267, lat=62.8045038, height=105430, hMSL=85081, hAcc=626, vAcc=1034)>
<UBX(NAV-POSLLH, iTOW=08:09:42, lon=23.4979332, lat=62.8045903, height=105585, hMSL=85236, hAcc=620, vAcc=1025)>
<UBX(NAV-POSLLH, iTOW=08:09:43, lon=23.497841, lat=62.8046754, height=105789, hMSL=85440, hAcc=614, vAcc=1012)>
<UBX(NAV-POSLLH, iTOW=08:09:44, lon=23.4977493, lat=62.8047597, height=105939, hMSL=85590, hAcc=607, vAcc=1001)>
<UBX(NAV-POSLLH, iTOW=08:09:45, lon=23.4976572, lat=62.8048432, height=106087, hMSL=85738, hAcc=601, vAcc=992)>
<UBX(NAV-POSLLH, iTOW=08:09:46, lon=23.4975637, lat=62.8049259, height=106282, hMSL=85933, hAcc=598, vAcc=983)>
<UBX(NAV-POSLLH, iTOW=08:09:47, lon=23.4974714, lat=62.8050076, height=106432, hMSL=86083, hAcc=595, vAcc=975)>
<UBX(NAV-POSLLH, iTOW=08:09:48, lon=23.4973807, lat=62.8050891, height=106624, hMSL=86275, hAcc=592, vAcc=964)>
<UBX(NAV-POSLLH, iTOW=08:09:49, lon=23.497291, lat=62.8051695, height=106854, hMSL=86504, hAcc=590, vAcc=956)>
<UBX(NAV-POSLLH, iTOW=08:09:50, lon=23.4972007, lat=62.8052472, height=106716, hMSL=86366, hAcc=591, vAcc=960)>
<UBX(NAV-POSLLH, iTOW=08:09:51, lon=23.4971146, lat=62.8053249, height=106775, hMSL=86425, hAcc=596, vAcc=962)>
<UBX(NAV-POSLLH, iTOW=08:09:52, lon=23.4970327, lat=62.8054015, height=106910, hMSL=86560, hAcc=596, vAcc=958)>
<UBX(NAV-POSLLH, iTOW=08:09:53, lon=23.4969577, lat=62.8054756, height=106947, hMSL=86597, hAcc=597, vAcc=960)>
<UBX(NAV-POSLLH, iTOW=08:09:54, lon=23.4968937, lat=62.8055461, height=106893, hMSL=86542, hAcc=602, vAcc=968)>
<UBX(NAV-POSLLH, iTOW=08:09:55, lon=23.4968363, lat=62.805613, height=107016, hMSL=86665, hAcc=607, vAcc=970)>
<UBX(NAV-POSLLH, iTOW=08:09:56, lon=23.4967712, lat=62.8056745, height=107222, hMSL=86872, hAcc=610, vAcc=976)>
<UBX(NAV-POSLLH, iTOW=08:09:57, lon=23.4966992, lat=62.8057293, height=107132, hMSL=86781, hAcc=607, vAcc=974)>
<UBX(NAV-POSLLH, iTOW=08:09:58, lon=23.4966322, lat=62.805782, height=107262, hMSL=86911, hAcc=603, vAcc=972)>
<UBX(NAV-POSLLH, iTOW=08:09:59, lon=23.4965803, lat=62.8058346, height=107326, hMSL=86975, hAcc=599, vAcc=969)>
<UBX(NAV-POSLLH, iTOW=08:10:00, lon=23.4965507, lat=62.8058862, height=107324, hMSL=86973, hAcc=596, vAcc=963)>
<UBX(NAV-POSLLH, iTOW=08:10:01, lon=23.4965415, lat=62.8059333, height=107371, hMSL=87020, hAcc=592, vAcc=965)>
<UBX(NAV-POSLLH, iTOW=08:10:02, lon=23.496542, lat=62.805972, height=107365, hMSL=87014, hAcc=589, vAcc=967)>
<UBX(NAV-POSLLH, iTOW=08:10:03, lon=23.4965437, lat=62.8060013, height=107456, hMSL=87105, hAcc=588, vAcc=971)>
<UBX(NAV-POSLLH, iTOW=08:10:04, lon=23.4965435, lat=62.8060216, height=107535, hMSL=87184, hAcc=589, vAcc=981)>
<UBX(NAV-POSLLH, iTOW=08:10:05, lon=23.4965424, lat=62.8060342, height=107627, hMSL=87276, hAcc=588, vAcc=991)>
<UBX(NAV-POSLLH, iTOW=08:10:06, lon=23.4965418, lat=62.8060391, height=107606, hMSL=87255, hAcc=586, vAcc=997)>
<UBX(NAV-POSLLH, iTOW=08:10:07, lon=23.4965413, lat=62.8060399, height=107645, hMSL=87294, hAcc=583, vAcc=1001)>
<UBX(NAV-POSLLH, iTOW=08:10:08, lon=23.4965406, lat=62.8060402, height=107703, hMSL=87352, hAcc=581, vAcc=1004)>
<UBX(NAV-POSLLH, iTOW=08:10:09, lon=23.4965401, lat=62.8060404, height=107751, hMSL=87400, hAcc=579, vAcc=1008)>
<UBX(NAV-POSLLH, iTOW=08:10:10, lon=23.4965396, lat=62.8060405, height=107797, hMSL=87446, hAcc=577, vAcc=1009)>
<UBX(NAV-POSLLH, iTOW=08:10:11, lon=23.496539, lat=62.8060407, height=107852, hMSL=87501, hAcc=574, vAcc=1010)>
<UBX(NAV-POSLLH, iTOW=08:10:12, lon=23.4965385, lat=62.8060409, height=107910, hMSL=87559, hAcc=572, vAcc=1011)>
